Fuel Type Code,Street Address,City,State,ZIP,Latitude,Longitude,Open Date,Country
CNG,340 Whitehall St,Atlanta,GA,30303,33.745843,-84.398837,7/15/94,US
CNG,7721A Washington St,Houston,TX,77007,29.779918,-95.435385,12/15/96,US
CNG,2100 S Waldron Rd,Fort Smith,AR,72903,35.362213,-94.375338,1/1/97,US
CNG,14 Cottage St,Boston,MA,2128,42.36612,-71.036737,11/15/96,US
CNG,201 Rivermoor St,West Roxbury,MA,2132,42.279048,-71.182767,11/15/96,US
CNG,12 Rover St,Everett,MA,2149,42.393167,-71.064352,11/15/96,US
CNG,287 Maspeth Ave,Brooklyn,NY,11211,40.718037,-73.932309,7/15/16,US
CNG,8424 Ditmas Ave,Brooklyn,NY,11236,40.64554,-73.918344,1/15/88,US
CNG,281 11th Ave,New York,NY,10001,40.752903,-74.005831,5/1/14,US
CNG,700 E 16th St,New York,NY,10009,40.729175,-73.97331,1/15/98,US
CNG,1615 Bronxdale Ave,Bronx,NY,10462,40.8441883,-73.8615724,1/15/98,US
CNG,124-15 31st Ave,Queens,NY,11354,40.769623,-73.843069,1/15/98,US
CNG,127 Whites Path,South Yarmouth,MA,2664,41.688787,-70.201253,11/15/96,US
CNG,111 W Raymond St,Indianapolis,IN,46225,39.736169,-86.161743,3/15/91,US
CNG,1301 W 24th St,Cheyenne,WY,82001,41.135848,-104.830233,3/1/13,US
CNG,131 Brainard Rd,Hartford,CT,6114,41.736894,-72.660257,11/15/96,US
CNG,8968 S Choctaw Dr,Baton Rouge,LA,70815,30.471166,-91.087975,8/15/96,US
CNG,2931 Rufina St,Santa Fe,NM,87507,35.65758,-105.993406,12/15/01,US
CNG,11401 W 89th St,Overland Park,KS,66214,38.966292,-94.715917,12/3/96,US
CNG,4118 Shrewsbury Ave,St. Louis,MO,63119,38.598601,-90.323574,3/15/04,US
CNG,1650 Islip Ave,Brentwood,NY,11717,40.785664,-73.219818,2/15/95,US
CNG,175 E Old Country Rd,Hicksville,NY,11801,40.766799,-73.509603,7/15/92,US
CNG,128 N Briery Rd,Irving,TX,75061,32.817883,-96.988716,12/15/96,US
CNG,801 S Riverfront Blvd,Dallas,TX,75207,32.76662,-96.807086,12/15/96,US
CNG,3526 Security St,Garland,TX,75042,32.89683,-96.68401,12/15/96,US
CNG,1150 W 200 S,Salt Lake City,UT,84104,40.764976,-111.922291,12/15/96,US
CNG,1050 W 200 N,Logan,UT,84321,41.734633,-111.861488,12/15/96,US
CNG,850 S Carbon Ave,Price,UT,84501,39.586805,-110.813433,12/15/96,US
CNG,1375 N Main St,Richfield,UT,84701,38.786621,-112.084147,12/15/96,US
CNG,915 E Saint George Blvd,St. George,UT,84770,37.110213,-113.563803,12/15/96,US
CNG,3103 N Industrial Way,Castle Rock,CO,80104,39.407087,-104.872002,11/1/13,US
CNG,27700 E 78th Ave,Denver,CO,80249,39.83765605,-104.6805,12/15/96,US
CNG,2990 W Baseline Rd,Boulder,CO,80303,39.999541,-105.253413,12/15/96,US
CNG,1125 Broadway,Menands,NY,12204,42.667569,-73.739345,8/15/11,US
CNG,1100 Airport Rd SE,Salem,OR,97301,44.9224565,-123.003936,11/15/96,US
CNG,412 SE 59th St,Oklahoma City,OK,73129,35.406042,-97.503367,12/15/96,US
CNG,1995 Veterans Blvd,Ardmore,OK,73401,34.185103,-97.107574,12/15/96,US
CNG,421 S Garland Rd,Enid,OK,73703,36.393246,-97.942055,12/15/96,US
CNG,Mile 178 Turner Turnpike,Stroud,OK,74079,35.751753,-96.689896,12/19/14,US
CNG,5848 E 15th St,Tulsa,OK,74112,36.13876,-95.911286,12/15/96,US
CNG,2616 W Border St,Muskogee,OK,74401,35.740489,-95.39614,12/15/96,US
CNG,2205 N Ash St,Ponca City,OK,74601,36.730008,-97.093765,12/15/96,US
CNG,1444 N Kickapoo St,Shawnee,OK,74801,35.346744,-96.930096,12/15/96,US
CNG,680 Ridge Pike,Plymouth Meeting,PA,19462,40.080572,-75.252389,5/12/16,US
CNG,788 Taylorville Rd,Grass Valley,CA,95949,39.20062,-121.062126,5/15/95,US
CNG,4500 Norris Canyon Rd,San Ramon,CA,94583,37.773172,-121.968239,3/2/95,US
CNG,615 7th Ave,Santa Cruz,CA,95062,36.969267,-121.999295,5/15/95,US
CNG,4101 Wible Rd,Bakersfield,CA,93313,35.317617,-119.039048,5/15/94,US
CNG,3754 E California Ave,Fresno,CA,93725,36.72136,-119.761165,5/15/95,US
CNG,390 Griffin St,Salinas,CA,93901,36.67217,-121.641106,5/15/92,US
CNG,275 Industrial Way,San Carlos,CA,94070,37.51689165,-122.2624653,5/15/92,US
CNG,536 Treat Ave,San Francisco,CA,94110,37.761127,-122.41383,5/15/95,US
CNG,1030 Detroit Ave,Concord,CA,94518,37.956072,-122.028697,5/15/90,US
CNG,24300 Clawiter Rd,Hayward,CA,94545,37.642339,-122.117821,5/15/91,US
CNG,1100 S 27th St,Richmond,CA,94804,37.916909,-122.344036,5/15/02,US
CNG,1220 Andersen Dr,San Rafael,CA,94901,37.951236,-122.499682,5/15/91,US
CNG,10900 N Blaney Ave,Cupertino,CA,95014,37.335646,-122.021398,5/15/96,US
CNG,308 Stockton Ave,San Jose,CA,95126,37.335663,-121.907088,5/15/91,US
CNG,4040 West Ln,Stockton,CA,95204,37.990624,-121.283787,5/15/92,US
CNG,3965 Occidental Rd,Santa Rosa,CA,95401,38.428592,-122.766929,5/15/93,US
CNG,333 Sacramento St,Auburn,CA,95603,38.888863,-121.074465,5/15/91,US
CNG,1415 2nd St,Davis,CA,95616,38.545155,-121.731878,5/15/93,US
CNG,5555 Florin-Perkins Rd,Sacramento,CA,95826,38.526151,-121.388438,6/15/16,US
CNG,5162 Munson Hwy,Milton,FL,32570,30.633284,-87.041286,1/15/91,US
CNG,100 Woodruff Industrial Ln,Greenville,SC,29607,34.829494,-82.310005,5/15/89,US
CNG,2712 Discovery Dr,Raleigh,NC,27616,35.860856,-78.594331,7/31/04,US
CNG,602 Cannon Rd,Carlsbad,CA,92008,33.13411446,-117.3323437,12/15/96,US
CNG,13626 Twin Peaks Rd,Poway,CA,92064,32.978339,-117.034924,6/15/91,US
CNG,6875 Consolidated Way,San Diego,CA,92121,32.876295,-117.166362,12/15/96,US
CNG,5488 Overland Ave,San Diego,CA,92123,32.833537,-117.132811,12/15/96,US
CNG,17700 Indian Ave,Moreno Valley,CA,92551,33.862772,-117.234706,1/15/09,US
CNG,1701 Stewart St,Santa Monica,CA,90404,34.030601,-118.465876,12/15/96,US
CNG,2800 Workman Mill Rd,Whittier,CA,90601,34.025657,-118.031019,12/15/96,US
CNG,8101 S Rosemead Blvd,Pico Rivera,CA,90660,33.968221,-118.109093,12/15/96,US
CNG,755 W Capitol Dr,Los Angeles,CA,90731,33.758315,-118.293979,12/15/96,US
CNG,16645 Saticoy St,Los Angeles,CA,91406,34.209219,-118.496403,12/15/96,US
CNG,534 N Barranca Ave,Covina,CA,91723,34.091688,-117.87986,12/15/96,US
CNG,21865 Copley Dr,Diamond Bar,CA,91765,34.001326,-117.830482,12/15/96,US
CNG,32-505 Harry Oliver Trail,Thousand Palms,CA,92276,33.812361,-116.395444,8/12/06,US
CNG,3077 Cottage St,Riverside,CA,92507,33.971694,-117.371722,12/15/96,US
CNG,12698 Industry St,Garden Grove,CA,92841,33.778966,-118.007908,5/15/95,US
CNG,6427 Oak Canyon,Irvine,CA,92618,33.676026,-117.764558,12/15/96,US
CNG,1650 Patton Ct,Oxnard,CA,93030,34.191405,-119.161215,5/15/95,US
CNG,75 Prado Rd,San Luis Obispo,CA,93401,35.254197,-120.670939,12/15/96,US
CNG,3333 Losee Rd,North Las Vegas,NV,89124,36.220567,-115.125553,12/15/96,US
CNG,1184 Lance Rd,Norfolk,VA,23502,36.864044,-76.217318,7/15/16,US
CNG,746 Diligence Dr,Newport News,VA,23606,37.083023,-76.463112,12/15/96,US
CNG,17000 Crabbs Branch Way,Gaithersburg,MD,20855,39.128863,-77.167581,10/31/14,US
CNG,1130 Tupelo St,Memphis,TN,38108,35.166531,-89.972823,9/15/95,US
CNG,2521 Pacific Hwy,San Diego,CA,92101,32.729925,-117.173535,12/15/96,US
CNG,10400 Aviation Blvd,Los Angeles,CA,90045,33.941383,-118.377866,12/15/96,US
CNG,2018 S Wood Dr,Okmulgee,OK,74447,35.602719,-95.962047,12/15/96,US
CNG,12641 N 39th Ave,Phoenix,AZ,85029,33.6013089,-112.1419547,1/1/97,US
CNG,11239 Midway,Chico,CA,95928,39.710548,-121.812671,5/15/95,US
CNG,158 Peabody Rd,Vacaville,CA,95687,38.3509,-121.977342,5/15/95,US
CNG,83-255 Highway 111,Indio,CA,92201,33.714919,-116.211564,8/12/06,US
CNG,9240 E Firestone Blvd,Downey,CA,90241,33.932994,-118.119479,12/15/96,US
CNG,1919 S State College Blvd,Anaheim,CA,92806,33.801121,-117.889388,12/15/96,US
CNG,1471 E Elm St,Compton,CA,90221,33.899899,-118.207088,12/15/96,US
CNG,1440 S Cucamonga St,Ontario,CA,91761,34.047068,-117.634077,5/15/94,US
CNG,3400 E Tahquitz Canyon Way,Palm Springs,CA,92262,33.823151,-116.508135,12/15/96,US
E85,220 10th St NW,Watertown,SD,57201,44.904113,-97.130798,11/15/93,US
E85,45316 Highway 34,Madison,SD,57042,44.00769,-97.146785,11/15/93,US
E85,2801 E 13th St,Ames,IA,50010,42.034894,-93.575925,9/15/05,US
E85,4305 W Mount Pleasant St,West Burlington,IA,52655,40.825493,-91.208355,1/15/90,US
E85,3714 W Truman Blvd,Jefferson City,MO,65109,38.588189,-92.255887,1/15/06,US
E85,601 S 13th St,Omaha,NE,68102,41.254124,-95.932748,7/15/97,US
E85,4200 N I-90 Service Rd,Rapid City,SD,57709,44.103769,-103.14969,6/15/05,US
ELEC,1015 L St,Sacramento,CA,95814,38.5783802,-121.4926,8/20/18,US
ELEC,1201 S Figueroa St,Los Angeles,CA,90015,34.04057,-118.268762,8/30/95,US
ELEC,111 N Hope St,Los Angeles,CA,90012,34.057922,-118.2498,10/15/99,US
ELEC,1718 N Cherokee Ave,Los Angeles,CA,90028,34.102404,-118.334758,8/15/95,US
ELEC,100 Santa Rosa Ave,Santa Rosa,CA,95404,38.4378748,-122.7108967,,US
ELEC,9530 Telstar Ave,El Monte,CA,91731,34.06872,-118.064,10/15/96,US
ELEC,3000 Hanover St,Palo Alto,CA,94304,37.416434,-122.145904,,US
E85,1808 Morrissey Dr,Bloomington,IL,61704,40.453057,-88.96696,11/15/93,US
LNG,1735 S Turner Ave,Ontario,CA,91761,34.042311,-117.584572,3/15/97,US
E85,1271 N River Dr,Mankato,MN,56001,44.18791,-94.012676,6/15/97,US
E85,711 6th Ave SE,Winnebago,MN,56098,43.76211,-94.150344,6/15/97,US
ELEC,10666 N Torrey Pines Rd,La Jolla,CA,92037,32.89947,-117.243,7/30/97,US
ELEC,395 Broadway,Santa Monica,CA,90401,34.013658,-118.493749,7/30/97,US
ELEC,15500 San Pasqual Valley Rd,Escondido,CA,92027,33.098589,-117.004433,9/2/14,US
ELEC,15421 Roscoe Blvd,Sepulveda,CA,91343,34.221665,-118.468371,12/11/12,US
ELEC,1299 Galleria at Tyler,Riverside,CA,92503,33.91115,-117.4591,8/30/97,US
ELEC,150 E Holly St,Pasadena,CA,91103,34.14762,-118.147111,8/30/97,US
ELEC,45 De Lacey Ave,Pasadena,CA,91105,34.145015,-118.152223,8/30/97,US
ELEC,33 E Green St,Pasadena,CA,91105,34.144506,-118.150015,8/30/97,US
ELEC,150 S Los Robles,Pasadena,CA,91101,34.142973,-118.140553,8/31/97,US
ELEC,606 Fair Oaks Ave,South Pasadena,CA,91030,34.118433,-118.149597,8/31/97,US
CNG,200 Cortland Ave,Syracuse,NY,13202,43.035315,-76.152907,4/15/14,US
CNG,1735 S Turner Ave,Ontario,CA,91761,34.042311,-117.584572,3/15/97,US
CNG,3989 S K St,Tulare,CA,93274,36.169487,-119.338155,5/15/96,US
E85,4120 Highway 52 N,Rochester,MN,55901,44.066369,-92.503307,11/15/97,US
CNG,2421 S 1st Pl,Broken Arrow,OK,74012,36.023112,-95.786303,4/15/98,US
E85,1221 Washington Ave S,Minneapolis,MN,55415,44.974073,-93.251026,3/15/98,US
CNG,157 N Main St,Norwich,CT,6360,41.527246,-72.064419,4/15/97,US
ELEC,200 S Pine Ave,Long Beach,CA,90802,33.7637,-118.192,5/4/12,US
ELEC,5711 W Century Blvd,Los Angeles,CA,90045,33.946181,-118.38161,8/1/15,US
ELEC,1 World Way,Los Angeles,CA,90045,33.94325,-118.403342,6/30/98,US
ELEC,9301 Tampa Ave,Northridge,CA,91324,34.237946,-118.555646,5/30/98,US
ELEC,700 N Haven Ave,Ontario,CA,91764,34.07122,-117.575,6/15/98,US
ELEC,600 E Esplanade Dr,Oxnard,CA,93030,34.22935,-119.173,5/30/98,US
ELEC,400 E Tahquitz Canyon Way,Palm Springs,CA,92262,33.823353,-116.5436,12/12/11,US
ELEC,4340 Rosewood Dr,Pleasanton,CA,94588,37.700187,-121.876172,12/14/12,US
ELEC,3535 12th Street,Riverside,CA,92501,33.977163,-117.374653,,US
ELEC,5425 Wilson St,Riverside,CA,92509,34.0189,-117.38,5/30/98,US
ELEC,Lindbergh Dr,Sacramento,CA,95837,38.69005,-121.58889,6/30/98,US
ELEC,3223 Donald Douglas Loop,Santa Monica,CA,90405,34.017563,-118.447475,6/30/98,US
ELEC,200 Santa Monica Pier,Santa Monica,CA,90405,34.010021,-118.49583,6/30/98,US
ELEC,14006 Riverside Dr,Sherman Oaks,CA,91423,34.156943,-118.435252,5/30/98,US
ELEC,28462 Front St,Temecula,CA,92590,33.49605,-117.152,12/31/11,US
ELEC,333 Universal Terrace Pkwy,Universal City,CA,91608,34.138717,-118.35904,5/30/98,US
ELEC,7724 Van Nuys Blvd,Van Nuys,CA,91405,34.21108,-118.448704,6/30/98,US
ELEC,7075 Firestone Blvd,Downey,CA,90241,33.94756,-118.153806,6/15/98,US
ELEC,111 W Harbor Dr,San Diego,CA,92101,32.70597,-117.162,6/15/98,US
ELEC,44933 Fern Ave,Lancaster,CA,93534,34.698914,-118.145218,6/30/98,US
ELEC,555 N Point St,San Francisco,CA,94133,37.80619,-122.4152,7/1/98,US
ELEC,1689 Arden Way,Sacramento,CA,95815,38.599693,-121.427045,6/15/98,US
CNG,2005 S Cockrell Hill Rd,Dallas,TX,75211,32.723948,-96.893853,1/15/99,US
CNG,605 N Berry Rd,Norman,OK,73069,35.225601,-97.458827,1/15/99,US
CNG,1701 W Airline Rd,Pauls Valley,OK,73075,34.707522,-97.242035,1/15/99,US
CNG,1028 N Preston,Davenport,OK,74026,35.7140876,-96.7681766,1/15/99,US
CNG,410 S Hawthorne St,Sapulpa,OK,74066,35.993424,-96.127984,1/15/99,US
CNG,14201 McArt Rd,Victorville,CA,92392,34.508713,-117.332343,1/15/99,US
CNG,10844 Ellis Ave,Fountain Valley,CA,92708,33.691565,-117.939438,4/10/14,US
CNG,13200 Mulberry Dr,Whittier,CA,90602,33.954901,-118.045014,1/15/99,US
CNG,219 N Quarantina St,Santa Barbara,CA,93103,34.421443,-119.684178,1/15/99,US
CNG,1600 S Apple Ave,Reedley,CA,93654,36.590599,-119.4258,6/15/96,US
CNG,725 S Lexington St,Delano,CA,93215,35.75191,-119.240762,6/15/01,US
CNG,14270 Schaefer Hwy,Detroit,MI,48227,42.392613,-83.177738,2/15/98,US
E85,701 Eastland Dr,Jefferson City,MO,65101,38.549973,-92.149117,6/15/99,US
E85,1120 E Divide Ave,Bismarck,ND,58501,46.823993,-100.774849,4/15/99,US
LPG,700 County Highway H,Elkhorn,WI,53121,42.660919,-88.522923,,US
LPG,5901 N Western St,Amarillo,TX,79124,35.267353,-101.885391,,US
LPG,6319 Doniphan Dr,El Paso,TX,79932,31.880963,-106.596279,,US
LPG,441 Main St,Caribou,ME,4736,46.842162,-68.009825,,US
LPG,33 Rockland Rd,South Norwalk,CT,6854,41.082789,-73.429554,,US
LPG,24 Lakeside Ave,West Orange,NJ,7052,40.782618,-74.232109,,US
LPG,199 Route 46 W,Lodi,NJ,7644,40.875277,-74.070034,,US
LPG,93 Hampton House Rd,Newton,NJ,7860,41.095604,-74.732857,,US
LPG,276 E Broadway,Monticello,NY,12701,41.651953,-74.672938,,US
LPG,3931 Oneida St,New Hartford,NY,13413,43.053333,-75.27217,,US
LPG,70 Katherine St,Buffalo,NY,14210,42.858293,-78.859068,,US
LPG,3619 Route 5,Canandaigua,NY,14424,42.861349,-77.194712,,US
LPG,224 Cross Rd,Geneva,NY,14456,42.935597,-76.976236,,US
LPG,2381 Route 14 A,Penn Yan,NY,14527,42.648003,-77.050026,,US
LPG,8635 State Route 209,Williamstown,PA,17098,40.572305,-76.647804,,US
LPG,3941 Federalsburg Hwy,Federalsburg,MD,21632,38.71499249,-75.78760697,,US
LPG,6708 Old National Pike,Boonsboro,MD,21713,39.497868,-77.646165,,US
LPG,6901 Iron Bridge Rd,Richmond,VA,23234,37.419674,-77.501414,,US
LPG,1355 Greenbag Rd,Morgantown,WV,26508,39.626106,-79.931098,,US
LPG,1421 S Main St,Winston-Salem,NC,27127,36.0781916,-80.2401848,,US
LPG,2265 Highway 24-27 E,Biscoe,NC,27209,35.3590927,-79.7949146,,US
LPG,1609 W Webb Ave,Burlington,NC,27217,36.106677,-79.45843,,US
LPG,710 Patton Ave,Greensboro,NC,27406,36.040371,-79.77377,,US
LPG,6109 W Wilkinson Blvd,Belmont,NC,28012,35.250341,-81.055212,,US
LPG,1010 W Innes St,Salisbury,NC,28144,35.675775,-80.479128,,US
LPG,1504 Sunset Ave,Clinton,NC,28328,34.991642,-78.353907,,US
LPG,4636 Jonesville-Lockhart Hwy,Union,SC,29379,34.795094,-81.480821,,US
LPG,1990 Joe Frank Harris Pkwy NW,Cartersville,GA,30121,34.231469,-84.855059,,US
LPG,2635 E Highway 16,Sharpsburg,GA,30277,33.330208,-84.696877,,US
LPG,1475 Old Chattahoochee Ave,Atlanta,GA,30318,33.795583,-84.416951,,US
LPG,4319 Mundy Mill Rd,Oakwood,GA,30566,34.25143681,-83.89017841,,US
LPG,17460 High Springs Main St,High Springs,FL,32643,29.815293,-82.604314,7/16/14,US
LPG,7709 Alton Ave,Jacksonville,FL,32211,30.314705,-81.576634,,US
LPG,2812 Silver Star Rd,Orlando,FL,32808,28.577258,-81.419681,,US
LPG,10606 E Colonial Dr,Orlando,FL,32817,28.568905,-81.232029,,US
LPG,421 Noble St,Anniston,AL,36201,33.65029673,-85.82958337,,US
LPG,702 Memorial Dr,Piedmont,AL,36272,33.921589,-85.620314,,US
LPG,915 Lafayette Hwy,Roanoke,AL,36274,33.136025,-85.362562,,US
LPG,1662 Old Highway N 431,Wedowee,AL,36278,33.33112455,-85.47761277,,US
LPG,3003 Marvyn Pkwy,Opelika,AL,36804,32.613832,-85.371078,,US
LPG,4505 Singer Rd,Murfreesboro,TN,37129,35.918912,-86.464616,,US
LPG,905 Highway 12 W,Starkville,MS,39759,33.44524,-88.84445,,US
LPG,12675 State Highway 28 W,Taylorsville,MS,39168,31.730092,-89.428718,,US
LPG,404 Northside Dr,Newton,MS,39345,32.332444,-89.153519,,US
LPG,305 N Archusa Ave,Quitman,MS,39355,32.044212,-88.728494,,US
LPG,102 Mississippi Dr,Waynesboro,MS,39367,31.66404964,-88.62845546,,US
LPG,3000 25th Ave,Gulfport,MS,39501,30.387011,-89.092705,,US
LPG,249 Old Highway 98 E,Tylertown,MS,39667,31.125255,-90.105773,,US
LPG,110 E Campbell Ln,Bowling Green,KY,42101,36.966801,-86.475813,,US
LPG,10501 Airport Hwy,Swanton,OH,43558,41.599915,-83.793113,,US
LPG,2400 S Main St,Akron,OH,44319,41.021243,-81.527391,,US
LPG,2006 W Michigan St,Sidney,OH,45365,40.2880521,-84.1853395,,US
LPG,3551 Intercity Dr,Dayton,OH,45424,39.801785,-84.119562,,US
LPG,1750 W Epler Ave,Indianapolis,IN,46217,39.686648,-86.191362,,US
LPG,27795 County Rd 10 W,Elkhart,IN,46514,41.702995,-86.000045,,US
LPG,9360 Highway 150,Greenville,IN,47124,38.37072,-85.982138,,US
LPG,6088 E State Route 46,Nashville,IN,47448,39.199057,-86.136206,,US
LPG,18701 Northline Rd,Southgate,MI,48195,42.212961,-83.224188,,US
LPG,2625 S Huron Rd,Kawkawlin,MI,48631,43.6636158,-83.9491356,,US
LPG,914 W Pickard St,Mt Pleasant,MI,48858,43.6133762,-84.786947,,US
LPG,8512 Howard City Edmore Rd,Vestaburg,MI,48891,43.40755,-84.914344,,US
LPG,79221 M-51 Hwy,Decatur,MI,49045,41.99585,-86.107303,,US
LPG,9155 W Weston Rd,Morenci,MI,49256,41.722923,-84.195908,,US
LPG,13443 Northland Dr,Cedar Springs,MI,49319,43.209511,-85.552336,,US
LPG,633 Market Ave,Story City,IA,50248,42.18877,-93.600452,,US
LPG,106 Cedar St,La Porte City,IA,50651,42.313476,-92.18402,,US
LPG,603 2nd Ave,Sheldon,IA,51201,43.184578,-95.854432,,US
LPG,203 W Oak St,Red Oak,IA,51566,41.016931,-95.233166,,US
LPG,3500 2nd St,Coralville,IA,52241,41.69936,-91.628922,,US
LPG,802 14th Ave SW,Cedar Rapids,IA,52404,41.963827,-91.680587,,US
LPG,4117 Terminal Dr,McFarland,WI,53558,43.037844,-89.300987,1/6/17,US
LPG,1301 S Stoughton Rd,Madison,WI,53716,43.079008,-89.309455,,US
LPG,503 S Main St,Adams,WI,53910,43.951709,-89.818179,,US
LPG,7160 N Raceway Rd,Beaver Dam,WI,53916,43.450347,-88.809853,,US
LPG,50 Packer Dr,Roberts,WI,54023,44.991768,-92.546966,,US
LPG,801 Prospect Ave,Osceola,WI,54020,45.32144921,-92.6848172,,US
LPG,1584 Neva Rd,Antigo,WI,54409,45.154349,-89.148964,,US
LPG,212 W 14th St,Marshfield,WI,54449,44.655065,-90.184604,,US
LPG,112 S Park St,Rhinelander,WI,54501,45.633577,-89.416625,,US
LPG,411 Sanborn Ave,Ashland,WI,54806,46.578846,-90.906851,,US
LPG,924 Hammond Ave,Rice Lake,WI,54868,45.511284,-91.740166,,US
LPG,3900 Washington Ave N,Minneapolis,MN,55412,45.026438,-93.283182,,US
LPG,1000 Atlantic Ave,Morris,MN,56267,45.590137,-95.917661,,US
LPG,313 W 4th Ave,Milbank,SD,57252,45.21913,-96.64383,,US
LPG,1200 E King Ave,Chamberlain,SD,57325,43.786315,-99.312377,,US
LPG,703 2nd St SW,Huron,SD,57350,44.36473,-98.22608,,US
LPG,721 S State St,Aberdeen,SD,57401,45.457279,-98.478615,,US
LPG,711 Vander Horck St,Britton,SD,57430,45.791288,-97.749117,,US
LPG,Highway 212 W,Eagle Butte,SD,57625,45.007628,-101.245195,,US
LPG,151 9th Ave NW,Valley City,ND,58072,46.923661,-98.015913,,US
LPG,1304 Highway 5 W,Cavalier,ND,58220,48.7928412,-97.6370211,,US
LPG,241 W Main St,New Town,ND,58763,47.979019,-102.48899,,US
LPG,306 4th St,Gardiner,MT,59030,45.031836,-110.708081,,US
LPG,800 E Main St,Laurel,MT,59044,45.672305,-108.761506,,US
LPG,303 W Montana Ave,Deer Lodge,MT,59722,46.397091,-112.735401,,US
LPG,714 Roosevelt Hwy,Shelby,MT,59474,48.509598,-111.864547,,US
LPG,200 Highway 2 W,Malta,MT,59538,48.363671,-107.878595,,US
LPG,1120 E Idaho St,Kalispell,MT,59901,48.208824,-114.292362,,US
LPG,1901 Pleasant St,DeKalb,IL,60115,41.933187,-88.726782,,US
LPG,4158 Division St,Hillside,IL,60162,41.866236,-87.887214,,US
LPG,202 N Highway 54,Roberts,IL,60962,40.6144051,-88.1762632,,US
LPG,203 SE 5th Ave,Aledo,IL,61231,41.200666,-90.74496,,US
LPG,1242 S West St,Galesburg,IL,61401,40.932053,-90.375206,,US
LPG,536 N Ohio Ave,Rantoul,IL,61866,40.316843,-88.157041,,US
LPG,214 Park St,Hardin,IL,62047,39.158963,-90.617327,,US
LPG,1431 N Illinois St,Swansea,IL,62226,38.528539,-89.984914,,US
LPG,13079 N Shiloh Dr,Mt Vernon,IL,62864,38.315898,-88.971133,,US
LPG,1114 N Marion St,Carbondale,IL,62901,37.738458,-89.215318,,US
LPG,504 W Highway Z,Dearborn,MO,64439,39.52303768,-94.77279967,,US
LPG,1 E Jackson St,Chillicothe,MO,64601,39.793464,-93.543136,,US
LPG,211 Highway DD W,Cuba,MO,65453,38.07116,-91.410484,,US
LPG,201 N M St,Belleville,KS,66935,39.837643,-97.630972,,US
LPG,801 E Madison Ave,Arkansas City,KS,67005,37.055362,-97.029938,,US
LPG,3160 N K-15 Hwy,Newton,KS,67114,38.0869877,-97.3460081,,US
LPG,514 N 9th St,Salina,KS,67401,38.849541,-97.612419,,US
LPG,518 Main St,Tampa,KS,67483,38.550122,-97.153172,,US
LPG,109 Clay St,Hutchinson,KS,67501,38.053947,-97.911312,,US
LPG,707 N Main St,South Hutchinson,KS,67505,38.037489,-97.940849,,US
LPG,1330 S Kansas Ave,Liberal,KS,67901,37.019411,-100.919019,,US
LPG,642 Route 6,Ashland,NE,68003,41.0376048,-96.3589001,,US
LPG,211 W Main St,Crofton,NE,68730,42.732502,-97.495215,,US
LPG,707 E Pacific St,Lexington,NE,68850,40.774991,-99.732302,,US
LPG,1634 E South St,Hastings,NE,68901,40.582327,-98.359981,,US
LPG,33797 NE 34,Benkelman,NE,69021,40.055042,-101.541431,,US
LPG,4030 Front St,Winnsboro,LA,71295,32.155722,-91.713832,,US
LPG,1301 Lincoln Ave,Star City,AR,71667,33.927253,-91.843474,,US
LPG,1428 Highway 82 E,Lewisville,AR,71845,33.357971,-93.602332,,US
LPG,1570 Highway 371,Nashville,AR,71852,33.952395,-93.871315,,US
LPG,2201 Highway 71 S,Mena,AR,71953,34.568008,-94.256164,,US
LPG,1072 Fourche Ave,Perryville,AR,72126,35.013763,-92.798412,,US
LPG,703 Eastline Rd,Searcy,AR,72143,35.240358,-91.690837,,US
LPG,2511 Highway 67 N,Pocahontas,AR,72455,36.280519,-90.949528,,US
LPG,1402 E Central Blvd,Anadarko,OK,73005,35.07177162,-98.22194434,,US
LPG,9005 S Sunnylane Rd,Oklahoma City,OK,73160,35.376575,-97.441963,,US
LPG,20734 US Highway 66,Canute,OK,73626,35.421938,-99.288447,,US
LPG,3411 S Boomer Rd,Stillwater,OK,74074,36.084812,-97.051949,,US
LPG,3130 N 32nd St,Muskogee,OK,74401,35.787229,-95.401368,,US
LPG,9323 S Central Expy,Dallas,TX,75241,32.684726,-96.73629,,US
LPG,4095 N Main St,Paris,TX,75460,33.72243339,-95.54908108,,US
LPG,8620 US Highway 59 N,Atlanta,TX,75551,33.095005,-94.226198,,US
LPG,20501 FM 2493,Bullard,TX,75757,32.182469,-95.345249,,US
LPG,7870 Highway 79 S,Palestine,TX,75801,31.702799,-95.719888,,US
LPG,608 Highway 199 E,Springtown,TX,76082,32.961542,-97.677806,,US
LPG,12901 South Fwy,Burleson,TX,76028,32.570292,-97.3177,,US
LPG,3074 State Highway 59 N,Bowie,TX,76230,33.578747,-97.81708,,US
LPG,1405 W Highway 82,Gainesville,TX,76240,33.642159,-97.16037,,US
LPG,372 Highway 77,Rockdale,TX,76567,30.66941419,-96.9802061,,US
LPG,305 N Waco Highway 77,Hillsboro,TX,76645,32.016107,-97.13037,,US
LPG,1201 La Salle Ave,Waco,TX,76706,31.535157,-97.119669,,US
LPG,10548 Highway 206 N,Coleman,TX,76834,31.85732348,-99.40661207,,US
LPG,1004 San Antonio Hwy,Mason,TX,76856,30.7398924,-99.2195941,,US
LPG,8750 N Highway 87,San Angelo,TX,76901,31.568255,-100.570259,,US
LPG,3623 Live Oak St,Damon,TX,77430,29.290569,-95.734392,,US
LPG,3406 Highway 21 W,Madisonville,TX,77864,30.9287426,-95.95660679,,US
LPG,6673 Highway 77,Sinton,TX,78387,27.995178,-97.544281,,US
LPG,1240 Highway 16 S,Fredericksburg,TX,78624,30.25599,-98.890452,,US
LPG,2621 E Main St,Uvalde,TX,78801,29.226503,-99.758699,,US
LPG,9619 Fritch Fortress Rd,Fritch,TX,79036,35.675527,-101.579864,,US
LPG,512 State Highway 214,Muleshoe,TX,79347,34.232828,-102.721077,,US
LPG,1116 Industrial Dr,Slaton,TX,79364,33.450685,-101.653858,,US
LPG,2500 US Highway 277 N,Anson,TX,79501,32.780632,-99.8945251,,US
LPG,4349 Highway 380 W,Rule,TX,79547,33.1834977,-99.8840766,,US
LPG,3410 W Loop 338,Odessa,TX,79764,31.86908,-102.416824,,US
LPG,8918 Gateway Blvd E,El Paso,TX,79907,31.722301,-106.308406,,US
LPG,790 W 64th Ave,Denver,CO,80221,39.81266059,-104.9960955,,US
LPG,67302 US Highway 285,Pine,CO,80470,39.462523,-105.400158,,US
LPG,55 W Bromley Ln,Brighton,CO,80601,39.973357,-104.823485,,US
LPG,1642 2nd Ave,Greeley,CO,80631,40.41297884,-104.6804323,,US
LPG,650 County Rd 5,Divide,CO,80814,38.951592,-105.157543,,US
LPG,215 Auburn Dr,Colorado Springs,CO,80909,38.836518,-104.76244,,US
LPG,123 E Cranston Ave,Fowler,CO,81039,38.13086057,-104.0226081,,US
LPG,606 N Main St,Lamar,CO,81052,38.095652,-102.619371,,US
LPG,1509 N Highway 135,Gunnison,CO,81230,38.565785,-106.924165,,US
LPG,690 Railroad Blvd,Grand Junction,CO,81505,39.104542,-108.636696,,US
LPG,817 N 10th St,Worland,WY,82401,44.024327,-107.956546,,US
LPG,41 SE Wyoming Blvd,Casper,WY,82609,42.852002,-106.269439,,US
LPG,1103 W Yellowstone Hwy,Douglas,WY,82633,42.762678,-105.402123,,US
LPG,78 S Highway 450,Newcastle,WY,82701,43.846907,-104.268992,,US
LPG,401 Enterprise Ave,Gillette,WY,82716,44.296893,-105.475974,,US
LPG,117 N Scott St,Sheridan,WY,82801,44.798483,-106.952937,12/18/15,US
LPG,49 Kooi St,Sheridan,WY,82801,44.825799,-106.959505,,US
LPG,201 Industrial Rd,Rock Springs,WY,82901,41.618008,-109.235771,,US
LPG,62 Evans Ave,Malad,ID,83252,42.184313,-112.247078,,US
LPG,375 E 2nd St,Soda Springs,ID,83276,42.6508432,-111.5977566,,US
LPG,218 Highway 24 N,Rupert,ID,83350,42.648844,-113.629412,,US
LPG,1770 N Holmes Ave,Idaho Falls,ID,83401,43.514414,-112.022525,,US
LPG,2646 S 500 W,Driggs,ID,83422,43.684571,-111.111656,12/18/15,US
LPG,500 Main St,Salmon,ID,83467,45.176073,-113.894276,,US
LPG,520 Main St,Salmon,ID,83467,45.175768,-113.893493,,US
LPG,4230 Hatwai Rd,Lewiston,ID,83501,46.436761,-116.965818,,US
LPG,20415 Pinto Rd,Caldwell,ID,83607,43.668526,-116.78119,,US
LPG,1020 S Highway 118,Richfield,UT,84701,38.75449,-112.086348,,US
LPG,13779 N Fountain Hills Blvd,Fountain Hills,AZ,85268,33.610842,-111.728575,,US
LPG,4200 N Sullinger Ave,Tucson,AZ,85705,32.283407,-111.017134,,US
LPG,475 N 6th St,Prescott,AZ,86301,34.5479982,-112.465088,,US
LPG,1281 Highway 66 E,Tijeras,NM,87059,35.094774,-106.272415,,US
LPG,4151 Cerrillos Rd,Santa Fe,NM,87507,35.638489,-106.018234,,US
LPG,1700 N US Highway 180,Deming,NM,88030,32.281686,-107.761668,,US
LPG,301 E Tatum Hwy,Lovington,NM,88260,32.965796,-103.344952,,US
LPG,6985 US Highway 54 N,Alamogordo,NM,88310,32.946921,-105.96894,,US
LPG,23891 Bridger Rd,Lake Forest,CA,92630,33.615471,-117.7076,,US
LPG,12600 Western Ave,Garden Grove,CA,92841,33.778977,-118.001197,4/15/11,US
LPG,205 N Ben Maddox Way,Visalia,CA,93292,36.33042929,-119.2785736,,US
LPG,226 N 2nd St,Patterson,CA,95363,37.475136,-121.131276,,US
LPG,1765 Arnold Industrial Way,Concord,CA,94520,38.00326,-122.048376,,US
LPG,1580 S Main St,Willits,CA,95490,39.392957,-123.348474,,US
LPG,423 Wilson St,Petaluma,CA,94952,38.236513,-122.629384,,US
LPG,526 S Butte St,Willows,CA,95988,39.514701,-122.194928,,US
LPG,10075 SW Cascade Ave,Tigard,OR,97223,45.446897,-122.784312,,US
LPG,1276 S Burlington Blvd,Burlington,WA,98233,48.461001,-122.335019,,US
LPG,31686 State Route 20,Oak Harbor,WA,98277,48.291006,-122.657044,,US
LPG,646 S 3rd Ave,Sequim,WA,98382,48.075004,-123.107255,12/19/18,US
LPG,410 E Methow Valley Hwy,Twisp,WA,98856,48.360131,-120.117777,,US
LPG,521 S 3rd Ave,Yakima,WA,98902,46.592964,-120.509003,,US
LPG,1617 S Keys Rd,Yakima,WA,98901,46.579372,-120.458565,2/1/93,US
LPG,940 E Wine Country Rd,Grandview,WA,98930,46.252991,-119.881263,,US
LPG,285 W 5th Ave,Colville,WA,99114,48.548298,-117.908425,,US
LPG,6207 E Broadway Ave,Spokane Valley,WA,99212,47.664424,-117.321485,,US
LPG,6951 E Blue Lupine Dr,Palmer,AK,99645,61.563934,-149.27485,,US
LPG,80 County Rd,East Freetown,MA,2717,41.7571537,-70.9465365,,US
LPG,3129 Route 46 E,Parsippany,NJ,7054,40.871234,-74.4243189,,US
LPG,2400 Wilco Blvd S,Wilson,NC,27893,35.694332,-77.922661,,US
LPG,4429 Highway 153,Easley,SC,29642,34.80149148,-82.51188388,6/20/18,US
LPG,1097 Bypass 123,Seneca,SC,29678,34.692528,-82.979164,,US
LPG,1375 E Highway 166,Bowdon,GA,30108,33.560932,-85.225441,,US
LPG,2876 W Point Rd,LaGrange,GA,30240,33.01729,-85.098307,,US
LPG,3075 W Michigan Ave,Pensacola,FL,32526,30.460683,-87.295092,,US
LPG,9307 Bachman Rd,Orlando,FL,32824,28.431542,-81.39195,,US
LPG,100 E Coosa St,Talladega,AL,35160,33.437911,-86.10236337,,US
LPG,920 Dale Rd,Eufaula,AL,36027,31.881609,-85.152382,,US
LPG,305 N Schillinger Rd,Mobile,AL,36608,30.697377,-88.22662,,US
LPG,1121 Highway 19 E,Elizabethton,TN,37643,36.3486529,-82.2143018,,US
LPG,26136 Highway 27,Crystal Springs,MS,39059,32.005806,-90.342199,,US
LPG,6650 S Frontage Rd,Billings,MT,59101,45.741552,-108.582694,,US
LPG,303 N Main St,Joplin,MO,64801,37.093069,-94.512863,,US
LPG,2837 Roe Ln,Kansas City,KS,66103,39.050218,-94.640583,,US
LPG,115 Livingston St,Filley,NE,68357,40.285106,-96.535164,,US
LPG,1817 River Rd,North Little Rock,AR,72114,34.763224,-92.289345,,US
LPG,1701 109th St,Grand Prairie,TX,75050,32.77585,-97.053607,,US
LPG,126 E Wilbarger St,Vernon,TX,76384,34.151769,-99.262943,,US
LPG,1955 SE Military Dr,San Antonio,TX,78223,29.3522,-98.464639,,US
LPG,3821 Veterans Blvd,Del Rio,TX,78840,29.410893,-100.904433,,US
LPG,1340 Walnut St,Columbus,TX,78934,29.706566,-96.551993,,US
LPG,916 W Wilks St,Pampa,TX,79065,35.526296,-100.972708,,US
LPG,11554 N Loop Rd,Socorro,TX,79927,31.628537,-106.248079,,US
LPG,5725 W 11th Ave,Lakewood,CO,80214,39.735897,-105.060692,,US
LPG,534 Grand Ave,Arco,ID,83213,43.631949,-113.30613,,US
LPG,17117 S Broadway St,Gardena,CA,90248,33.875777,-118.278709,,US
LPG,535 S Melrose Ave,Placentia,CA,92870,33.865219,-117.875765,,US
LPG,46151 N Sierra Hwy,Lancaster,CA,93534,34.721923,-118.140984,,US
LPG,41441 Highway 41,Oakhurst,CA,93644,37.350869,-119.641645,,US
LPG,2874 S Cherry Ave,Fresno,CA,93706,36.696968,-119.783754,,US
LPG,3105 Monterey Hwy,San Jose,CA,95111,37.286649,-121.844374,,US
LPG,1980 E Main St,Woodland,CA,95776,38.676681,-121.731397,,US
LPG,12575 Charles Dr,Grass Valley,CA,95945,39.21881,-121.005174,,US
LPG,12820 34th Ave NE,Marysville,WA,98271,48.11169,-122.185353,,US
LPG,3620 S Cushman St,Fairbanks,AK,99701,64.812063,-147.711349,,US
LPG,4955 Appalachian Hwy,Blue Ridge,GA,30513,34.876234,-84.309163,,US
LPG,131 W Church St,Batesburg,SC,29006,33.914126,-81.5314408,,US
LPG,26 Racetrack Rd,McDonough,GA,30253,33.430498,-84.144169,,US
LPG,400 N Old Dixie Hwy,Jupiter,FL,33458,26.937886,-80.094297,12/18/15,US
LPG,6441 San Casa Dr,Englewood,FL,34224,26.932957,-82.31324,,US
LPG,3798 Old Highway 60,Hardinsburg,KY,40143,37.76195,-86.4409,,US
LPG,5923 W Imlay City Rd,Imlay City,MI,48444,43.050163,-83.111736,,US
LPG,4181 Naples Ave SW,Iowa City,IA,52240,41.62751,-91.569853,,US
LPG,406 Division St,Cobb,WI,53526,42.971344,-90.329262,,US
LPG,6335 Merchant St,Askov,MN,55704,46.18898886,-92.7807639,,US
LPG,840 E Main St,Belle Plaine,MN,56011,44.623582,-93.753637,,US
LPG,105 E Highway 12,Groton,SD,57445,45.458143,-98.101036,,US
LPG,615 Minnie Ave,Wilton,ND,58579,47.154867,-100.79075,,US
LPG,10522 N 2nd St,Machesney Park,IL,61115,42.371222,-89.032441,,US
LPG,2100 N 12th St,Quincy,IL,62301,39.956612,-91.394737,,US
LPG,162 W Main St,Kahoka,MO,63445,40.420391,-91.720589,,US
LPG,4201 N Baltimore St,Kirksville,MO,63501,40.241788,-92.585086,,US
LPG,2618 Central Dr,Junction City,KS,66441,38.998584,-96.865395,,US
LPG,612 S 5th St,Herington,KS,67449,38.660521,-96.947911,,US
LPG,1580 Highway K25,Colby,KS,67701,39.403597,-101.0547,,US
LPG,105 E Millard St,Clarks,NE,68628,41.220289,-97.829571,,US
LPG,7401 Broadway Extension Hwy,Oklahoma City,OK,73116,35.5468031,-97.5147226,,US
LPG,4651 S Highway 177,Ponca City,OK,74601,36.656971,-97.073886,,US
LPG,13823 Packard St,Houston,TX,77040,29.85035,-95.52508,,US
LPG,1387 Texas 75 N,Huntsville,TX,77320,30.747585,-95.629913,,US
LPG,209 S Grand Ave,Las Vegas,NM,87701,35.582444,-105.218364,,US
LPG,447 E Main St,Springerville,AZ,85938,34.13307942,-109.2807489,,US
LPG,Highway 60 W,Quemado,NM,87829,34.34325821,-108.5081267,,US
LPG,2091 Highway 70 E,Ruidoso Downs,NM,88346,33.3264625,-105.6196533,,US
LPG,364 Lower Grass Valley Rd,Nevada City,CA,95959,39.245706,-121.029189,,US
LPG,1766 Main St,Weaverville,CA,96093,40.71896,-122.928227,,US
LPG,5639 Barrett Rd,Ferndale,WA,98248,48.845847,-122.574109,5/27/15,US
LPG,5387 LaBounty Dr,Ferndale,WA,98248,48.836361,-122.56902,,US
LPG,16510 Highway 9 SE,Snohomish,WA,98296,47.847339,-122.119043,,US
LPG,780 Highway 395 N,Kettle Falls,WA,99141,48.608837,-118.031363,,US
LPG,411 N Havana St,Spokane,WA,99202,47.661336,-117.347683,,US
LPG,2835 Plum Lake Dr,Sayner,WI,54560,45.98475938,-89.52850683,,US
LPG,700 N Montana St,Dillon,MT,59725,45.228358,-112.62784,,US
LPG,2619 Katherine St,Fort Myers,FL,33901,26.627739,-81.859581,,US
LPG,1207 Water St,Elko,NV,89801,40.835661,-115.752194,,US
LPG,1750 E Centre St,Rapid City,SD,57703,44.077086,-103.183857,,US
LPG,854 Brazeau Ave,Oconto,WI,54153,44.8969806,-87.88160905,,US
LPG,543 W Main St,Carlinville,IL,62626,39.279495,-89.888411,,US
LPG,19363 KS-18,Luray,KS,67649,39.094151,-98.630657,,US
LPG,1001 Edinger Ave,Tustin,CA,92780,33.726848,-117.833643,,US
LPG,1420 W Main St,Tremonton,UT,84337,41.711475,-112.187957,,US
LPG,1384 NE Highway 99 W,McMinnville,OR,97128,45.225424,-123.184738,,US
LPG,10515 KS-59,Erie,KS,66733,37.522545,-95.270816,,US
LPG,110 Elm St,Lebanon,KS,66952,39.812503,-98.56008,,US
LPG,707 N First St,Osborne,KS,67473,39.449274,-98.695114,,US
LPG,6731 US Highway 2,Escanaba,MI,49829,45.7900694,-87.0816016,,US
LPG,2918 W US Highway 2,Gulliver,MI,49840,45.9914557,-86.0175803,,US
LPG,422 W Main St,Lake Leelanau,MI,49653,44.983234,-85.719574,,US
LPG,2535 S Van Dyke Rd,Marlette,MI,48453,43.341216,-83.08443,,US
LPG,12046 M-28,Newberry,MI,49868,46.3034263,-85.4863344,,US
LPG,50 Underwood Ln,Middletown,RI,2842,41.517681,-71.305281,,US
LPG,878 County Rd,West Wareham,MA,2576,41.8029293,-70.7709222,,US
LPG,1 Simons Ln,Newmarket,NH,3857,43.089603,-70.933188,,US
LPG,287 Highway 56 E,Boise City,OK,73933,36.725918,-102.482411,,US
LPG,2580 Highway 333,Moriarty,NM,87035,35.018483,-106.084703,,US
LPG,26 Cibola Sands Loop,Grants,NM,87020,35.144611,-107.872896,,US
LPG,800 Howard Cavasos Rd N,Moriarty,NM,87035,35.01223515,-106.0423095,,US
LPG,2603 Old Highway 66 W,Moriarty,NM,87035,35.040269,-106.139272,,US
LPG,491 N Highway 666,Gallup,NM,87301,35.530093,-108.760078,,US
LPG,5702 Highway 64,Farmington,NM,87401,36.70521776,-108.1041072,,US
LPG,HC 31,Caballo,NM,87931,32.953106,-107.311903,,US
LPG,301 N Motel Blvd,Las Cruces,NM,88007,32.300976,-106.814255,,US
LPG,513 McCombs St,Chaparral,NM,88081,32.033972,-106.409135,,US
LPG,100 E 1st St,Deming,NM,88030,32.273215,-107.7591464,,US
LPG,855 Silver Heights Blvd,Silver City,NM,88061,32.783081,-108.267395,,US
LPG,1348 US 84,Clovis,NM,88101,34.405169,-103.257604,,US
LPG,3025 National Parks Hwy,Carlsbad,NM,88220,32.387567,-104.221634,,US
LPG,7039 Highway 70 N,Alamogordo,NM,88310,32.954935,-105.971482,,US
LPG,7080 Highway 54/70,Alamogordo,NM,88310,32.960426,-105.975998,12/13/18,US
LPG,15792 N Arizona State Highway 87 Service Rd,Payson,AZ,85541,34.09329711,-111.3546202,,US
LPG,1660 Barlow St,Traverse City,MI,49686,44.737338,-85.607314,,US
LPG,2560 Benzie Hwy,Benzonia,MI,49616,44.5947834,-86.10021259,,US
LPG,1513 Industrial Dr,Columbia,MO,65019,38.584875,-92.194112,,US
LPG,115 Sunrise Dr,Branson,MO,65616,36.69915905,-93.22155468,,US
LPG,1920 Orchard Ave,Hannibal,MO,63401,39.684059,-91.397578,,US
LPG,2521 E 7th St,Joplin,MO,64801,37.084163,-94.486526,,US
LPG,15173 State Highway 13,Branson West,MO,65686,36.6777876,-93.3905521,,US
LPG,501 N Highway 71,Savannah,MO,64485,39.946513,-94.822289,,US
LPG,100 Beckett Memorial Dr,Valley Park,MO,63088,38.553231,-90.488857,,US
LPG,10289 Dyer St,El Paso,TX,79924,31.909546,-106.402658,,US
LPG,1198 N Main St,Salinas,CA,93906,36.69898308,-121.6515856,,US
LPG,9535 E 3rd St,Hanford,CA,93230,36.323778,-119.627095,,US
LPG,2595 E Seltice Way,Post Falls,ID,83854,47.710993,-116.913877,,US
LPG,2904 Benzie Hwy,Benzonia,MI,49616,44.589747,-86.100559,,US
LPG,13618 45th Ave NE,Marysville,WA,98271,48.11959,-122.172864,,US
E85,3701 Central Rd NE,Columbia Heights,MN,55421,45.036651,-93.246789,6/15/99,US
E85,18823 Freeport Ave,Elk River,MN,55330,45.31216,-93.559853,6/15/99,US
E85,8401 Lyndale Ave S,Bloomington,MN,55420,44.851239,-93.287848,10/15/06,US
LPG,1455 Route 9W,Marlboro,NY,12542,41.61701915,-73.96522041,,US
LPG,548 College Park Rd,Ladson,SC,29456,33.008394,-80.087471,,US
LPG,2170 Edgefield Rd,Trenton,SC,29847,33.655139,-81.895527,,US
LPG,3600 Meridian St,Huntsville,AL,35811,34.773256,-86.571778,,US
LPG,204 S George Lee St,Belzoni,MS,39038,33.17851828,-90.4911591,,US
LPG,735 Weise St,Green Bay,WI,54302,44.52630738,-87.99752037,,US
LPG,801 S 22nd Ave,Wausau,WI,54401,44.952867,-89.663022,,US
LPG,130 S Boundary Ave,Duluth,MN,55810,46.738328,-92.21661,,US
LPG,603 W Sioux Ave,Pierre,SD,57501,44.37086,-100.36133,,US
LPG,230 North Dakota 15,Fessenden,ND,58438,46.659132,-99.353099,,US
LPG,219 Central Ave,Fairfield,MT,59436,47.6144419,-111.983084,,US
LPG,1603 E North St,Eldon,MO,65026,38.3497912,-92.5575339,,US
LPG,527 Main St,Cabool,MO,65689,37.12139,-92.1064,,US
LPG,620 Martin Rd,Woodward,OK,73801,36.438805,-99.43794,,US
LPG,108 E Walnut St,Archer City,TX,76351,33.594606,-98.62551,,US
LPG,1109 Main St,Limon,CO,80828,39.262677,-103.691055,,US
LPG,435 N Washington Ave,Twin Falls,ID,83301,42.569396,-114.480363,,US
LPG,70 E 1100 N,Tooele,UT,84074,40.55255,-112.296188,,US
LPG,5140 W Bethany Home Rd,Glendale,AZ,85301,33.524636,-112.171171,,US
LPG,641 NE Lombard St,Portland,OR,97211,45.577892,-122.65905,,US
LPG,6096 Crater Lake Ave,Central Point,OR,97502,42.404792,-122.855072,,US
LPG,8450 Depot Rd,Lynden,WA,98264,48.948679,-122.451035,,US
LPG,520 Front St,Wrangell,AK,99929,56.4692518,-132.3796801,,US
LPG,308 E Main St,Albertville,AL,35950,34.266682,-86.204247,,US
LPG,309 S 10th Ave,Laurel,MS,39440,31.686789,-89.138309,,US
LPG,3333 S Arkansas Ave,Russellville,AR,72802,35.245108,-93.137943,1/6/17,US
LPG,4218 NE Peachtree Rd,Atlanta,GA,30319,33.86645083,-84.3370682,,US
LPG,2173 McCullough Blvd,Tupelo,MS,38801,34.292168,-88.755813,,US
LPG,4330 Westerville Rd,Columbus,OH,43231,40.05948,-82.93631,,US
LPG,800 Riverside Dr,Omak,WA,98841,48.416026,-119.510665,,US
LPG,2798 APD 40,Cleveland,TN,37323,35.131482,-84.8791,,US
LPG,1112 E 4th St,Coffeyville,KS,67337,37.040049,-95.598724,,US
LPG,2051 KS-99,Frankfort,KS,66427,39.718307,-96.416974,,US
LPG,1853 E 1450 Rd,Lawrence,KS,66044,39.008232,-95.234062,1/1/00,US
LPG,615 E Cedar St,Liberal,KS,67901,37.034678,-100.911294,,US
LPG,123 W South St,Mankato,KS,66956,39.784439,-98.21112,,US
LPG,601 W La Lande Ave,Sublette,KS,67877,37.480644,-100.852907,,US
LPG,7245 S Division Ave,Grand Rapids,MI,49548,42.832995,-85.664506,,US
LPG,113 Fig St,Grayling,MI,49738,44.66386,-84.7195,,US
LPG,5335 W Wallace Rd,Ludington,MI,49431,43.953371,-86.412936,,US
LPG,100 Cedar Hill St,Marlborough,MA,1752,42.317319,-71.582313,,US
LPG,2680 N Highway 522,Questa,NM,87556,36.73786274,-105.5958522,,US
LPG,1547 Old Santa Fe Rd,Ranchos de Taos,NM,87557,36.355164,-105.615522,,US
LPG,415 E 3rd Ave,Truth or Consequences,NM,87901,33.132869,-107.246225,,US
LPG,602 Tatum Hwy,Lovington,NM,88260,32.967399,-103.340593,,US
LPG,16624 Highway 17,Crocker,MO,65452,37.92224505,-92.2588687,,US
LPG,524 State Route 25,Dexter,MO,63841,36.800454,-89.950219,,US
LPG,704 Industrial Dr,Eldon,MO,65026,38.34409,-92.562059,,US
LPG,8300 Highway 63,Houston,MO,65483,37.366107,-91.911417,,US
LPG,312 Malone St,Macon,MO,63552,39.734822,-92.476806,,US
LPG,15956 State Highway 47,Marthasville,MO,63357,38.632992,-91.065547,,US
LPG,3150 S Campbell Ave,Springfield,MO,65807,37.157144,-93.295227,,US
LPG,322 Saint Robert Outer Rd,St. Robert,MO,65583,37.825324,-92.140219,,US
LPG,507 Missouri Ave,West Plains,MO,65775,36.732505,-91.857512,,US
LPG,28900 Mission Blvd,Hayward,CA,94544,37.6348,-122.051951,,US
LPG,2658 E Pacheco Blvd,Los Banos,CA,93635,37.057079,-120.810721,,US
LPG,1300 S Gateway Dr,Madera,CA,93637,36.950158,-120.04964,,US
LPG,338 Easy St,Wells,NV,89835,41.105285,-114.973815,,US
LPG,13955 Lamoille Hwy,Spring Creek,NV,89815,40.75121,-115.629484,,US
LPG,17951 Highway 66,Claremore,OK,74017,36.353369,-95.584167,,US
CNG,3200 Crater Lake Ave,Medford,OR,97504,42.36317,-122.85563,1/15/94,US
CNG,20 Main St,Tewksbury,MA,1876,42.629512,-71.270846,2/15/02,US
CNG,Route 128 N,Lexington,MA,2421,42.446147,-71.255103,3/15/00,US
CNG,117 Doctors Path,Riverhead,NY,11901,40.940028,-72.652774,12/15/04,US
CNG,455 Mill Rd,Valley Stream,NY,11581,40.648881,-73.707638,2/15/98,US
CNG,3101 N Gate Rd,Seal Beach,CA,90740,33.773004,-118.077029,3/15/00,US
CNG,16690 D St,Victorville,CA,92395,34.53939073,-117.2961996,3/15/00,US
CNG,1610 E Washington St,West Bend,WI,53095,43.427167,-88.158191,3/15/00,US
E85,211 Highway 9 S,Morris,MN,56267,45.325268,-95.580093,3/15/00,US
E85,1020 Atlantic Ave,Benson,MN,56215,45.314149,-95.597034,3/15/00,US
E85,7 NE 8th St,Buffalo,MN,55313,45.180276,-93.875528,3/15/00,US
E85,1401 4th St NW,Austin,MN,55912,43.678937,-92.980113,7/15/07,US
E85,202 101st Ave NW,Coon Rapids,MN,55448,45.15281,-93.272259,3/15/00,US
E85,31 SW 19th St,Forest Lake,MN,55025,45.278893,-93.005773,3/15/00,US
E85,420 66th Ave N,Brooklyn Center,MN,55430,45.074958,-93.287884,12/15/06,US
E85,2725 Campus Dr,Plymouth,MN,55441,45.00947,-93.448971,3/15/00,US
E85,1444 E Minnehaha,St. Paul,MN,55106,44.962858,-93.03913,3/15/00,US
E85,600 Snelling Ave N,St. Paul,MN,55104,44.95859,-93.166635,3/15/00,US
E85,19955 State Highway 7,Shorewood,MN,55331,44.907799,-93.531939,3/15/00,US
E85,444 E 1st Ave,Shakopee,MN,55379,44.798999,-93.521407,3/15/00,US
E85,5401 W Old Shakopee Rd,Bloomington,MN,55437,44.807343,-93.351905,9/15/06,US
E85,3615 Pilot Knob Rd,Eagan,MN,55122,44.826776,-93.168119,3/15/00,US
E85,3145 Dodd Rd,Eagan,MN,55121,44.843646,-93.123553,3/15/00,US
E85,21100 Kenrick Ave,Lakeville,MN,55044,44.643244,-93.289764,3/15/00,US
LPG,13118 Excelsior Blvd,Minnetonka,MN,55343,44.916866,-93.447042,,US
LPG,186 N Old Tucson Rd,Nogales,AZ,85621,31.41015364,-110.9557722,12/11/18,US
LPG,255 S Ironwood Dr,Apache Junction,AZ,85120,33.41283991,-111.5629469,,US
LPG,2905 S Haskell Ave,Willcox,AZ,85643,32.22244795,-109.8732727,,US
LPG,8901 N Highway 89,Flagstaff,AZ,86004,35.268568,-111.545167,,US
CNG,1700 S Mount Prospect Rd,Des Plaines,IL,60018,42.018189,-87.922158,1/15/95,US
E85,218 Wells St,Belgrade,MN,56312,45.452715,-95.004701,8/15/05,US
E85,1002 S Kniss,Luverne,MN,56156,43.640938,-96.213763,8/15/07,US
LPG,600 E Frank Way,Williams,AZ,86046,35.262199,-112.183952,,US
LPG,878 Memorial Dr,Chicopee,MA,1020,42.181436,-72.578149,,US
LPG,914 Boston Rd,Springfield,MA,1119,42.138924,-72.514322,,US
LPG,290 Belmont St,Worcester,MA,1604,42.273408,-71.770978,,US
LPG,390 Providence Hwy,Norwood,MA,2062,42.198516,-71.186058,,US
LPG,666 Bridge St,Weymouth,MA,2191,42.246005,-70.938866,,US
LPG,594 Bearses Way,Hyannis,MA,2601,41.665121,-70.301508,,US
LPG,480 Pleasant St,Attleboro,MA,2703,41.951997,-71.272318,,US
LPG,415 Mt Pleasant St,New Bedford,MA,2746,41.66074,-70.941909,,US
LPG,492 E Washington St,North Attleboro,MA,2760,41.9809283,-71.3303894,,US
LPG,279 Oakland Beach Ave,Warwick,RI,2889,41.70186,-71.399194,,US
LPG,286 Daniel Webster Hwy S,Nashua,NH,3060,42.704754,-71.440475,,US
LPG,443 Hooksett Rd,Manchester,NH,3104,43.014822,-71.451746,,US
LPG,199 Marlboro St,Keene,NH,3431,42.925895,-72.271093,,US
LPG,400 US 1 Bypass,Portsmouth,NH,3801,43.066864,-70.776968,,US
LPG,173 Bath Rd,Brunswick,ME,4011,43.907522,-69.918532,4/8/19,US
LPG,492 Main St,Saco,ME,4072,43.50786,-70.436456,,US
LPG,755 Capitol Ave,Hartford,CT,6106,41.760859,-72.701571,,US
LPG,164 South St,West Hartford,CT,6110,41.724095,-72.723925,,US
LPG,3197 Main St,Hartford,CT,6120,41.795556,-72.664135,,US
LPG,29 Route 66 E,Columbia,CT,6237,41.719475,-72.27642,,US
LPG,284 E Main St,Meriden,CT,6450,41.53435072,-72.7941917,,US
LPG,169 Meriden Rd,Waterbury,CT,6705,41.550273,-73.013511,,US
LPG,75 Division St,Danbury,CT,6810,41.391202,-73.458418,,US
LPG,25 Jefferson St,Stamford,CT,6902,41.048794,-73.533618,,US
LPG,276 Tonnelle Ave,Jersey City,NJ,7306,40.739785,-74.063833,,US
LPG,397 Route 18 S,East Brunswick,NJ,8816,40.44863758,-74.39721354,,US
LPG,230-240 Maple Ave,Rockville Centre,NY,11570,40.658112,-73.634055,,US
LPG,5356 University Blvd,Coraopolis,PA,15108,40.526297,-80.211333,,US
LPG,1027 William Flynn Hwy,Glenshaw,PA,15116,40.516269,-79.954447,,US
LPG,5 Clairton Blvd,Pleasant Hills,PA,15236,40.341375,-79.964158,,US
LPG,4720 McKnight Rd,Pittsburgh,PA,15237,40.516645,-80.004231,,US
LPG,960 Washington Rd,Washington,PA,15301,40.199432,-80.205843,,US
LPG,5010 Buffalo Rd,Erie,PA,16510,42.153379,-79.989521,,US
LPG,1800 Valley View Blvd,Altoona,PA,16601,40.499992,-78.389966,,US
LPG,1235 Benner Pike,State College,PA,16801,40.842963,-77.796133,,US
LPG,5621 Allentown Blvd,Harrisburg,PA,17112,40.320352,-76.791595,,US
LPG,1795 Lincoln Way E,Chambersburg,PA,17202,39.9229631,-77.6015608,,US
LPG,925 York Rd,Gettysburg,PA,17325,39.838748,-77.210873,,US
LPG,5456 Main St,Lancaster,PA,17520,40.092238,-76.349328,,US
LPG,238 Penn St,Williamsport,PA,17701,41.243146,-76.994371,,US
LPG,1428 E Livingston St,Allentown,PA,18103,40.625824,-75.433108,,US
LPG,375 N 7th Ave,Scranton,PA,18503,41.412464,-75.672469,,US
LPG,250 Bethlehem Pike,Colmar,PA,18915,40.273609,-75.259772,8/1/14,US
LPG,3040 Mount Carmel Ave,Glenside,PA,19038,40.113251,-75.170627,,US
LPG,4857 Chestnut St,Philadelphia,PA,19139,39.957666,-75.218648,,US
LPG,101 W Hunting Park Ave,Philadelphia,PA,19140,40.014249,-75.126333,,US
LPG,6141 Lancaster Ave,Philadelphia,PA,19151,39.982914,-75.241167,,US
LPG,7750 Roosevelt Blvd,Philadelphia,PA,19152,40.052496,-75.051064,,US
LPG,1305 W Main St,Norristown,PA,19401,40.123137,-75.360946,,US
LPG,1647 N 5th St,Reading,PA,19601,40.360391,-75.926808,,US
LPG,8537 Centreville Rd,Manassas Park,VA,20111,38.769923,-77.452272,,US
LPG,14111 John Marshall Hwy,Gainesville,VA,20155,38.797527,-77.61155,,US
LPG,3230 Old Washington Rd,Waldorf,MD,20602,38.622855,-76.909975,,US
LPG,3710 St Barnabas Rd,Suitland,MD,20746,38.838171,-76.940476,,US
LPG,31 Derwood Cir,Rockville,MD,20850,39.102816,-77.154217,,US
LPG,13944 Old Hanover Rd,Reisterstown,MD,21136,39.507334,-76.829852,,US
LPG,4111 W Northern Pkwy,Baltimore,MD,21215,39.34799,-76.692348,,US
LPG,5643 Baltimore National Pike,Catonsville,MD,21228,39.288452,-76.728821,,US
LPG,2929 Washington Blvd,Baltimore,MD,21230,39.261297,-76.658173,,US
LPG,18315 Shawley Dr,Hagerstown,MD,21740,39.68898,-77.734904,,US
LPG,3533 Richmond Rd,Warsaw,VA,22572,37.966587,-76.798022,,US
LPG,900 N Lombardy St,Richmond,VA,23220,37.556486,-77.454863,,US
LPG,500 E Belt Blvd,Richmond,VA,23224,37.503362,-77.475459,,US
LPG,4511 W Broad St,Richmond,VA,23230,37.577444,-77.489022,,US
LPG,5210 Jefferson Davis Hwy,Richmond,VA,23234,37.451199,-77.442378,,US
LPG,664 Woodlake Dr,Chesapeake,VA,23320,36.789566,-76.238445,,US
LPG,4950 Virginia Beach Blvd,Virginia Beach,VA,23462,36.844557,-76.148369,,US
LPG,14861 Warwick Blvd,Newport News,VA,23608,37.13884,-76.546967,,US
LPG,1023 W Mercury Blvd,Hampton,VA,23666,37.042846,-76.379056,,US
LPG,2855 Airline Blvd,Portsmouth,VA,23701,36.808964,-76.367622,,US
LPG,2540 S Crater Rd,Petersburg,VA,23805,37.197927,-77.377395,,US
LPG,2618 Williamson Rd,Roanoke,VA,24012,37.2955311,-79.937022,,US
LPG,2902 Hershberger Rd NW,Roanoke,VA,24017,37.304957,-79.977533,,US
LPG,4426 Melrose Ave,Roanoke,VA,24017,37.29681,-80.009044,,US
LPG,2400 Riverside Dr,Danville,VA,24540,36.594923,-79.411721,,US
LPG,1902 7th Ave,Charleston,WV,25312,38.374699,-81.668918,,US
LPG,125 Ragland Rd,Beckley,WV,25801,37.806682,-81.183334,,US
LPG,1420 Blizzard Dr,Parkersburg,WV,26101,39.244688,-81.552899,,US
LPG,1119 Anmoore Rd,Bridgeport,WV,26330,39.266674,-80.28085,,US
LPG,1702 Mechanical Blvd,Garner,NC,27529,35.72547,-78.64714,,US
LPG,3001 N Capital Blvd,Raleigh,NC,27604,35.820809,-78.593763,,US
LPG,3919 E Franklin Blvd,Gastonia,NC,28056,35.25632,-81.111668,,US
LPG,387 Swannanoa River Rd,Asheville,NC,28805,35.579606,-82.518149,,US
LPG,901 Knox Abbott Dr,Cayce,SC,29033,33.981128,-81.063751,,US
LPG,400 Orchard Dr,West Columbia,SC,29170,33.982017,-81.109128,,US
LPG,2339 Two Notch Rd,Columbia,SC,29204,34.024807,-81.012362,,US
LPG,1003 Zimalcrest Dr,Columbia,SC,29210,34.047211,-81.104319,,US
LPG,8400 Two Notch Rd,Columbia,SC,29223,34.084679,-80.935507,,US
LPG,345 Whitney Rd,Spartanburg,SC,29303,34.972942,-81.938369,,US
LPG,2155 Credit Union Ln,North Charleston,SC,29406,32.908145,-80.024339,,US
LPG,369 N Irby St,Florence,SC,29501,34.202036,-79.769085,,US
LPG,4360 Covington Hwy,Decatur,GA,30035,33.749436,-84.22583,,US
LPG,706 Roswell St NE,Marietta,GA,30060,33.950211,-84.531713,12/11/18,US
LPG,5285 S Cobb Dr SE,Smyrna,GA,30080,33.82487238,-84.48800949,,US
LPG,4940 Memorial Dr,Stone Mountain,GA,30083,33.79028,-84.230988,,US
LPG,5365 Jimmy Carter Blvd NW,Norcross,GA,30093,33.904974,-84.204327,,US
LPG,1290 Pleasant Hill Rd,Lawrenceville,GA,30044,33.935982,-84.120506,,US
LPG,7242 Highway 85,Riverdale,GA,30274,33.557101,-84.413272,,US
LPG,2161 Hewatt Rd,Snellville,GA,30039,33.842699,-84.061184,,US
LPG,3947 NE Peachtree Rd,Atlanta,GA,30319,33.857618,-84.341682,,US
LPG,4375 Fulton Industrial Blvd SW,Atlanta,GA,30336,33.766113,-84.530628,,US
LPG,2951 NE Expy,Chamblee,GA,30341,33.864748,-84.286938,,US
LPG,3363 Wrightsboro Rd,Augusta,GA,30909,33.469164,-82.074659,,US
LPG,5481 Normandy Blvd,Jacksonville,FL,32205,30.309943,-81.740677,,US
LPG,1651 W Edgewood Ave,Jacksonville,FL,32208,30.388098,-81.684997,,US
LPG,3129 Southside Blvd,Jacksonville,FL,32216,30.289022,-81.558776,,US
LPG,6100 Blanding Blvd,Jacksonville,FL,32244,30.239682,-81.742219,,US
LPG,4420 Woodville Hwy,Tallahassee,FL,32305,30.378923,-84.27243,,US
LPG,2817 N Pace Blvd,Pensacola,FL,32505,30.442762,-87.240542,,US
LPG,631 N Beal Pkwy,Fort Walton Beach,FL,32548,30.430868,-86.638392,,US
LPG,802 N Main St,Gainesville,FL,32601,29.659612,-82.325314,,US
LPG,598 W FL-436,Altamonte Springs,FL,32714,28.661493,-81.405843,,US
LPG,3851 S Orlando Dr,Sanford,FL,32773,28.754746,-81.287746,,US
LPG,1175 N Orlando Ave,Winter Park,FL,32789,28.609298,-81.365676,,US
LPG,4001 E Colonial Dr,Orlando,FL,32803,28.55433,-81.334677,,US
LPG,3500 S Orange Ave,Orlando,FL,32806,28.504136,-81.377038,,US
LPG,4600 W Colonial Dr,Orlando,FL,32808,28.551981,-81.438959,,US
LPG,438 N Harbor City Blvd,Melbourne,FL,32935,28.115297,-80.62201,,US
LPG,213 Dixie Ln,Rockledge,FL,32955,28.346861,-80.726852,,US
LPG,6150 W 20th Ave,Hialeah,FL,33016,25.8784,-80.324703,,US
LPG,1700 N State Rd 7,Margate,FL,33063,26.249825,-80.200424,,US
LPG,801 S Andrews Ave,Pompano Beach,FL,33069,26.2186,-80.139242,,US
LPG,377 W Brandon Blvd,Brandon,FL,33511,27.93731,-82.289314,,US
LPG,2309 Angel Oliva Senior St,Tampa,FL,33605,27.963881,-82.43922,,US
LPG,4406 W Hillsborough Ave,Tampa,FL,33614,27.995738,-82.518845,,US
LPG,4020 66th St N,St. Petersburg,FL,33709,27.808369,-82.728703,,US
LPG,23917 US Highway 19 N,Clearwater,FL,33765,27.989719,-82.728906,,US
LPG,10440 Seminole Blvd,Seminole,FL,33778,27.867681,-82.7871896,,US
LPG,5631 US Highway 19,New Port Richey,FL,34652,28.241388,-82.728518,,US
LPG,1636 Center Point Pkwy,Birmingham,AL,35215,33.630192,-86.68589,,US
LPG,7733 1st Ave N,Birmingham,AL,35206,33.562,-86.728521,,US
LPG,3028 Bessemer Rd,Birmingham,AL,35208,33.504955,-86.866486,,US
LPG,1024 Montgomery Hwy,Vestavia Hills,AL,35216,33.440542,-86.789845,,US
LPG,124 Skyland Blvd E,Tuscaloosa,AL,35405,33.167636,-87.535354,,US
LPG,2002 Beltline Rd SW,Decatur,AL,35601,34.57716,-87.017605,,US
LPG,4400 University Dr NW,Huntsville,AL,35816,34.73549,-86.637551,,US
LPG,1707 Kyle Ave,Gadsden,AL,35901,34.025938,-86.030555,,US
LPG,3138 Mobile Hwy,Montgomery,AL,36108,32.345882,-86.340492,,US
LPG,200 W I-65 Service Rd S,Mobile,AL,36608,30.67927,-88.128811,,US
LPG,1301 Opelika Rd,Auburn,AL,36830,32.62192,-85.455132,,US
LPG,121 Moving Center Ct,Madison,TN,37115,36.251407,-86.719961,,US
LPG,1420 NE Memorial Blvd,Murfreesboro,TN,37129,35.862106,-86.389596,,US
LPG,14535 Lebanon Rd,Old Hickory,TN,37138,36.219753,-86.568904,,US
LPG,1816 8th Ave S,Nashville,TN,37203,36.134991,-86.778633,,US
LPG,3741 Annex Ave,Nashville,TN,37209,36.140596,-86.884048,,US
LPG,1147 N Congress Pkwy,Athens,TN,37303,35.488694,-84.581297,,US
LPG,2022 Broad St,Chattanooga,TN,37408,35.032674,-85.313368,,US
LPG,5816 Ringgold Rd,East Ridge,TN,37412,34.990254,-85.21915,,US
LPG,2975 W State St,Bristol,TN,37620,36.59288,-82.220955,,US
LPG,4717 Clinton Hwy,Knoxville,TN,37912,35.999905,-83.97261,,US
LPG,7209 Kingston Pike SW,Knoxville,TN,37919,35.931011,-84.02858,,US
LPG,7200 Chapman Hwy,Knoxville,TN,37920,35.910423,-83.851997,,US
LPG,10833 Kingston Pike SW,Knoxville,TN,37934,35.893982,-84.144295,,US
LPG,3020 Lamar Ave,Memphis,TN,38114,35.086247,-89.961313,,US
LPG,3561 Mendenhall Rd,Memphis,TN,38115,35.051569,-89.886731,,US
LPG,1364 E Shelby Dr,Memphis,TN,38116,35.021787,-90.018291,,US
LPG,173 Airways Blvd,Jackson,TN,38301,35.616308,-88.827415,,US
LPG,334 N Frontage Rd,Meridian,MS,39301,32.363752,-88.677422,,US
LPG,4612 Preston Hwy,Louisville,KY,40213,38.1814,-85.720367,,US
LPG,1320 S Main St,Nicholasville,KY,40356,37.860298,-84.579527,,US
LPG,4425 Dixie Hwy,Elsmere,KY,41018,39.007025,-84.612321,,US
LPG,701 S Main St,Williamstown,KY,41097,38.618571,-84.571131,,US
LPG,1801 N 21st St,Newark,OH,43055,40.097302,-82.426417,,US
LPG,1211 Parsons Ave,Columbus,OH,43206,39.938742,-82.983508,,US
LPG,3500 E Main St,Columbus,OH,43213,39.956715,-82.905265,,US
LPG,1428 W Broad St,Columbus,OH,43222,39.95794,-83.038652,,US
LPG,2980 Morse Rd,Columbus,OH,43231,40.059485,-82.94039,,US
LPG,2880 S Hamilton Rd,Columbus,OH,43232,39.916487,-82.879865,3/10/14,US
LPG,855 E Broadway St,Toledo,OH,43605,41.634644,-83.515622,,US
LPG,2701 N Reynolds Rd,Toledo,OH,43615,41.671071,-83.668157,,US
LPG,618 S Pine St,Zanesville,OH,43701,39.930268,-82.015608,,US
LPG,41215 N Ridge Rd,Elyria,OH,44035,41.418151,-82.119724,,US
LPG,6000 Clark Ave,Cleveland,OH,44102,41.470108,-81.727211,,US
LPG,1945 E 55th St,Cleveland,OH,44103,41.505866,-81.651327,,US
LPG,15173 Brookpark Rd,Brook Park,OH,44142,41.417989,-81.802748,1/2/18,US
LPG,2619 Waynesburg Dr SE,Canton,OH,44707,40.767798,-81.336717,,US
LPG,1227 W Main St,Kent,OH,44240,41.152247,-81.387525,,US
LPG,9034 State Route 14,Streetsboro,OH,44241,41.237132,-81.334295,,US
LPG,6104 State Route 14,Ravenna,OH,44266,41.156473,-81.218073,,US
LPG,800 E Tallmadge Ave,Akron,OH,44310,41.102004,-81.486049,,US
LPG,2914 Lincoln Way E,Massillon,OH,44646,40.796361,-81.480526,,US
LPG,10112 Harrison Rd,Harrison,OH,45030,39.243279,-84.777777,,US
LPG,230 S Verity Pkwy,Middletown,OH,45042,39.511958,-84.403688,,US
LPG,2320 Gilbert Ave,Cincinnati,OH,45206,39.123386,-84.491222,,US
LPG,9178 Colerain Ave,Cincinnati,OH,45251,39.238577,-84.591462,,US
LPG,8210 Beechmont Ave,Cincinnati,OH,45255,39.073461,-84.327457,,US
LPG,1340 E 3rd St,Dayton,OH,45403,39.762211,-84.172943,,US
LPG,3936 Salem Ave,Dayton,OH,45406,39.799373,-84.253197,,US
LPG,2478 Dryden Rd,Moraine,OH,45439,39.719408,-84.21786,,US
LPG,802 W Columbia St,Springfield,OH,45504,39.926878,-83.824835,,US
LPG,1608 Elida Rd,Lima,OH,45805,40.755423,-84.133445,,US
LPG,6525 E Washington St,Indianapolis,IN,46219,39.770494,-86.055094,,US
LPG,5251 N Keystone Ave,Indianapolis,IN,46220,39.848997,-86.121599,,US
LPG,2960 Lafayette Rd,Indianapolis,IN,46222,39.809333,-86.22093,,US
LPG,8550 Pendleton Pike,Indianapolis,IN,46226,39.84147,-86.017649,,US
LPG,4011 S East St,Indianapolis,IN,46227,39.707455,-86.148264,,US
LPG,1861 US Route 41,Schererville,IN,46375,41.488621,-87.470114,,US
LPG,3410 Western Ave,South Bend,IN,46619,41.671669,-86.296555,,US
LPG,808 E Washington Blvd,Fort Wayne,IN,46803,41.078751,-85.127096,,US
LPG,365 Eastern Blvd,Jeffersonville,IN,47130,38.294297,-85.754386,,US
LPG,4495 Wismann Rd NE,Corydon,IN,47112,38.264522,-86.004718,,US
LPG,5900 E National Rd,Richmond,IN,47374,39.83365,-84.8217,,US
LPG,4111 Wabash Ave,Terre Haute,IN,47803,39.47424,-87.357,,US
LPG,22455 Telegraph Rd,Southfield,MI,48034,42.455292,-83.278765,,US
LPG,31540 Gratiot Ave,Roseville,MI,48066,42.52831,-82.915655,,US
LPG,24875 Groesbeck Hwy,Warren,MI,48089,42.477544,-82.982165,,US
LPG,3655 S State St,Ann Arbor,MI,48108,42.234259,-83.737314,,US
LPG,1649 N Telegraph Rd,Monroe,MI,48162,41.945195,-83.403622,,US
LPG,8055 E Seven Mile Rd,Detroit,MI,48234,42.434284,-83.023111,,US
LPG,3760 Elizabeth Lake Rd,Waterford,MI,48328,42.6394347,-83.3601582,,US
LPG,1911 S Dort Hwy,Flint,MI,48503,43.006557,-83.653593,,US
LPG,3341 Miller Rd,Flint,MI,48503,42.994123,-83.728915,,US
LPG,3520 Bay Rd,Saginaw,MI,48603,43.458534,-83.974541,,US
LPG,3511 N East St,Lansing,MI,48906,42.769127,-84.543465,,US
LPG,5020 S Cedar St,Lansing,MI,48910,42.683876,-84.549126,,US
LPG,1004 Portage Rd,Kalamazoo,MI,49001,42.281637,-85.572424,,US
LPG,1529 S M-139 Hwy,Benton Harbor,MI,49022,42.09029997,-86.43595863,,US
LPG,1809 E Michigan Ave,Jackson,MI,49202,42.251907,-84.381831,,US
LPG,3587 E Apple Ave,Muskegon,MI,49442,43.233274,-86.15515,,US
LPG,3451 Plainfield Ave NE,Grand Rapids,MI,49525,43.026211,-85.633492,,US
LPG,3815 28th St SE,Grand Rapids,MI,49512,42.9133,-85.573181,,US
LPG,2720 Burlingame Ave SW,Wyoming,MI,49509,42.915035,-85.704193,,US
LPG,2020 W State St,Milwaukee,WI,53233,43.043536,-87.938324,,US
LPG,1900 E Milwaukee St,Janesville,WI,53545,42.691453,-88.999215,,US
LPG,522 W Platte Dr,Madison,WI,53719,43.054595,-89.502097,,US
LPG,2134 Rose St,La Crosse,WI,54603,43.853849,-91.247163,,US
LPG,141 Grand Ave,Schofield,WI,54476,44.929573,-89.613274,,US
LPG,603 N Hastings Way,Eau Claire,WI,54703,44.821107,-91.475037,,US
LPG,243 Ohio St,Oshkosh,WI,54902,44.015715,-88.552507,,US
LPG,883 University Ave W,St. Paul,MN,55104,44.955788,-93.137634,,US
LPG,2242 White Bear Ave,Maplewood,MN,55109,45.009006,-93.02441,,US
LPG,9890 Central Ave NE,Blaine,MN,55434,45.149783,-93.23668,,US
LPG,1641 Civic Center Dr NW,Rochester,MN,55901,44.030825,-92.48439,,US
LPG,502 N Highway 10,St. Cloud,MN,56304,45.574016,-94.144245,,US
LPG,126 SE Lincoln Ave,St. Cloud,MN,56304,45.566092,-94.142634,,US
LPG,20 Deadwood Ave,Rapid City,SD,57702,44.084749,-103.255668,,US
LPG,1145 W Main St,Billings,MT,59105,45.819742,-108.469457,,US
LPG,2152 Grand Ave,Billings,MT,59102,45.783615,-108.572077,,US
LPG,990 E Lyndale Ave,Helena,MT,59601,46.598583,-112.023667,,US
LPG,815 N 7th Ave,Bozeman,MT,59715,45.688156,-111.046806,,US
LPG,1560 Mount Prospect Rd,Des Plaines,IL,60018,42.02364882,-87.92126836,,US
LPG,2125 Dempster St,Evanston,IL,60201,42.041376,-87.703147,,US
LPG,2915 W 159th St,Markham,IL,60428,41.600255,-87.688178,,US
LPG,1700 N Cicero Ave,Chicago,IL,60639,41.911872,-87.746203,,US
LPG,4301 N Cicero Ave,Chicago,IL,60641,41.958916,-87.74741,,US
LPG,1650 E 71st St,Chicago,IL,60649,41.766151,-87.583614,,US
LPG,5027 W Cermak Rd,Cicero,IL,60804,41.850832,-87.750927,,US
LPG,1206 N Main St,Bloomington,IL,61701,40.491145,-88.994106,,US
LPG,306 E University Ave,Champaign,IL,61820,40.116631,-88.23472,,US
LPG,410 N Bruns Ln,Springfield,IL,62702,39.806744,-89.685933,,US
LPG,1800 N Highway 67,Florissant,MO,63033,38.799838,-90.315377,,US
LPG,8961 Dunn Rd,Hazelwood,MO,63042,38.777908,-90.347558,,US
LPG,1641 S Kingshighway Blvd,St. Louis,MO,63110,38.619434,-90.266613,,US
LPG,740 S Kingshighway St,Cape Girardeau,MO,63703,37.288958,-89.555506,,US
LPG,305 Highway 24 E,Independence,MO,64050,39.100229,-94.410752,,US
LPG,800 Business Loop 70 W,Columbia,MO,65203,38.966223,-92.349019,,US
LPG,1768 N Glenstone Ave,Springfield,MO,65803,37.229904,-93.261109,,US
LPG,7740 Metcalf Ave,Overland Park,KS,66204,38.988019,-94.668054,,US
LPG,3825 SW Topeka Blvd,Topeka,KS,66609,38.997337,-95.689621,,US
LPG,5213 E Pawnee St,Wichita,KS,67218,37.649657,-97.275034,,US
LPG,8716 L St,Omaha,NE,68127,41.212537,-96.047094,,US
LPG,8920 Maple St,Omaha,NE,68134,41.285855,-96.051335,,US
LPG,13606 L St,Omaha,NE,68137,41.213045,-96.126906,,US
LPG,1730 S Locust St,Grand Island,NE,68801,40.90402,-98.340395,,US
LPG,3800 N Causeway Blvd,Metairie,LA,70002,30.017814,-90.155126,,US
LPG,4 Westbank Expy,Gretna,LA,70053,29.920249,-90.042738,,US
LPG,1910 Veterans Blvd,Kenner,LA,70062,30.006852,-90.243176,,US
LPG,2936 Saint Claude Ave,New Orleans,LA,70117,29.967617,-90.046877,,US
LPG,2801 Tulane Ave,New Orleans,LA,70119,29.96311,-90.092587,,US
LPG,6210 Chef Menteur Hwy,New Orleans,LA,70126,30.010121,-90.017176,,US
LPG,4449 Michoud Blvd,New Orleans,LA,70129,30.027845,-89.926302,,US
LPG,1685 Gause Blvd,Slidell,LA,70458,30.284678,-89.751435,,US
LPG,3700 Ambassador Caffery Pkwy,Lafayette,LA,70503,30.172869,-92.069393,,US
LPG,1011 Highway 14,Lake Charles,LA,70601,30.224182,-93.180004,,US
LPG,7650 Airline Hwy,Baton Rouge,LA,70814,30.472995,-91.110941,,US
LPG,13151 Florida Blvd,Baton Rouge,LA,70815,30.462576,-91.038888,,US
LPG,2205 Hollywood Ave,Shreveport,LA,71108,32.455797,-93.775523,,US
LPG,601 N Cypress St,North Little Rock,AR,72114,34.7592786,-92.2632375,,US
LPG,8621 Warden Rd,Sherwood,AR,72120,34.831727,-92.180558,,US
LPG,424 N Smothers St,North Little Rock,AR,72114,34.756992,-92.25117,,US
LPG,5518 Baseline Rd,Little Rock,AR,72209,34.669848,-92.340035,,US
LPG,700 E Lindsey St,Norman,OK,73069,35.202983,-97.431548,,US
LPG,7525 SE 29th,Midwest City,OK,73110,35.435812,-97.390557,,US
LPG,4050 NW 39th St,Oklahoma City,OK,73112,35.510859,-97.591798,,US
LPG,6500 Northwest Expy,Oklahoma City,OK,73132,35.553439,-97.63109,,US
LPG,721 W Memorial Rd,Oklahoma City,OK,73114,35.609805,-97.526721,,US
LPG,6027 S High Ave,Oklahoma City,OK,73129,35.404533,-97.495571,,US
LPG,1010 S Memorial Dr,Tulsa,OK,74112,36.148825,-95.886746,,US
LPG,504 E Archer St,Tulsa,OK,74120,36.159247,-95.986658,,US
LPG,6105 S Peoria Ave,Tulsa,OK,74136,36.074887,-95.975331,,US
LPG,5140 S 103rd E Ave,Tulsa,OK,74146,36.089288,-95.861207,,US
LPG,1117 E Main St,Grand Prairie,TX,75050,32.746089,-96.990371,,US
LPG,525 I-35 N,Lewisville,TX,75067,33.05020426,-97.01037903,,US
LPG,1100 Los Rios Blvd,Plano,TX,75074,33.013038,-96.653415,,US
LPG,2920 Highway 75,Sherman,TX,75092,33.669845,-96.611592,,US
LPG,17899 I-20 S Service Rd,Canton,TX,75103,32.581777,-95.865982,,US
LPG,2505 N Kaufman St,Ennis,TX,75119,32.351483,-96.634258,,US
LPG,2500 N Highway 45,Corsicana,TX,75110,32.121118,-96.4657355,,US
LPG,101 S Highway 77,Waxahachie,TX,75165,32.380016,-96.852036,,US
LPG,9929 Harry Hines Blvd,Dallas,TX,75220,32.856957,-96.88043,,US
LPG,7015 Ferguson Rd,Dallas,TX,75228,32.793288,-96.724451,,US
LPG,3165 S Westmoreland Rd,Dallas,TX,75233,32.706231,-96.875512,,US
LPG,2160 US 67 W,Mt Pleasant,TX,75455,33.1649643,-95.0120417,,US
LPG,3015 S Church St,Paris,TX,75462,33.627921,-95.560593,,US
LPG,218 I-30 E,Mt Vernon,TX,75457,33.16374,-95.2183,,US
LPG,5553 Highway 300,Longview,TX,75604,32.58231958,-94.81367535,,US
LPG,1029 US 259 S,Daingerfield,TX,75638,32.998939,-94.719002,,US
LPG,2606 N Longview St,Kilgore,TX,75662,32.40410396,-94.85545168,,US
LPG,100 McCaleb St,Athens,TX,75751,32.202382,-95.872096,,US
LPG,3023 N Jackson St,Jacksonville,TX,75766,32.00063,-95.276422,,US
LPG,1006 S Loop 256,Palestine,TX,75801,31.757045,-95.605923,,US
LPG,904 S 4th St,Crockett,TX,75835,31.30506,-95.458688,,US
LPG,191 US Highway 96 S,Center,TX,75935,31.818815,-94.199453,,US
LPG,6500 Franklin Dr,Nacogdoches,TX,75964,31.666202,-94.6723,,US
LPG,2315 W Division St,Arlington,TX,76012,32.736576,-97.146715,,US
LPG,1304 N Main St,Mansfield,TX,76063,32.583037,-97.15356,,US
LPG,3510 Cleburne Hwy,Weatherford,TX,76087,32.70841,-97.776932,,US
LPG,5032 E Lancaster Ave,Fort Worth,TX,76103,32.740429,-97.245579,,US
LPG,2936 S Fwy,Fort Worth,TX,76104,32.708106,-97.321323,,US
LPG,5216 Jacksboro Hwy,Fort Worth,TX,76114,32.79679,-97.399138,,US
LPG,8221 Grapevine Hwy,North Richland Hills,TX,76180,32.841069,-97.204346,,US
LPG,164 N I 35 E,Denton,TX,76205,33.196607,-97.134351,,US
LPG,1413 E Wise St,Bowie,TX,76230,33.551185,-97.835833,,US
LPG,401 N Highway 156,Justin,TX,76247,33.087743,-97.295963,,US
LPG,20174 FM 103,Nocona,TX,76255,33.79977,-97.731178,,US
LPG,305 N Scott Ave,Wichita Falls,TX,76306,33.920282,-98.497836,,US
LPG,2817 Kell Blvd,Wichita Falls,TX,76308,33.882771,-98.532658,,US
LPG,715 Star Ave,Wichita Falls,TX,76301,33.90152859,-98.45435399,,US
LPG,10810 Highway 36 E,Cross Plains,TX,76443,32.126915,-99.192004,,US
LPG,784 Highway 67 S,Graham,TX,76450,33.093112,-98.611983,,US
LPG,20001 State Highway 281,Lipan,TX,76462,32.528238,-98.125407,,US
LPG,2905 S I-35,Belton,TX,76513,31.028231,-97.475508,,US
LPG,1203 S Rice St,Hamilton,TX,76531,31.695694,-98.127236,,US
LPG,1442 Highway 14 N,Mexia,TX,76667,31.701195,-96.484639,,US
LPG,4216 W Waco Dr,Waco,TX,76710,31.52894,-97.169273,,US
LPG,1907 S Bridge St,Brady,TX,76825,31.117996,-99.335654,,US
LPG,212 Highway 84 W,Goldthwaite,TX,76844,31.46793,-98.567344,,US
LPG,1 S Abe St,San Angelo,TX,76903,31.461103,-100.444826,,US
LPG,13330 I-10 E,Houston,TX,77015,29.77029,-95.188511,,US
LPG,8801 Mesa Rd,Houston,TX,77028,29.841582,-95.262951,,US
LPG,6808 Bissonet St,Houston,TX,77074,29.68976,-95.504232,,US
LPG,8518 Highway 6 S,Houston,TX,77083,29.68574,-95.644866,,US
LPG,1900 Silber Rd,Houston,TX,77055,29.804408,-95.467504,,US
LPG,8330 Highway 6 N,Houston,TX,77095,29.898444,-95.63561,,US
LPG,813 S Frazier St,Conroe,TX,77301,30.29924337,-95.45782414,,US
LPG,27219 Texas 249,Tomball,TX,77375,30.07143485,-95.62618233,,US
LPG,1609 Spring Cypress Rd,Spring,TX,77388,30.073148,-95.437741,,US
LPG,1120 State Highway 35 S,Bay City,TX,77414,28.982758,-95.976858,,US
LPG,9428 FM 1094,Sealy,TX,77474,29.84541549,-96.27067007,,US
LPG,1336 FM 521 Rd,Brazoria,TX,77422,29.028093,-95.569144,,US
LPG,6072 Highway 90A,Eagle Lake,TX,77434,29.578554,-96.316759,,US
LPG,3702 5th St,Missouri City,TX,77459,29.5918718,-95.5632799,,US
LPG,3230 Bamore Rd,Rosenberg,TX,77471,29.532978,-95.819677,,US
LPG,3536 Red Bluff Rd,Pasadena,TX,77503,29.685153,-95.159918,,US
LPG,2703 N Main St,Baytown,TX,77521,29.751333,-94.96447,,US
LPG,225 Grand St,Channelview,TX,77530,29.777074,-95.137535,,US
LPG,3201 FM 521,Fresno,TX,77545,29.539439,-95.448125,,US
LPG,2906 Manvel Rd,Pearland,TX,77584,29.554259,-95.331049,,US
LPG,3520 Palmer Ave,Texas City,TX,77590,29.395802,-94.950107,,US
LPG,3902 State Highway 124 S,Stowell,TX,77661,29.786063,-94.382951,,US
LPG,3885 Milam St,Beaumont,TX,77701,30.065031,-94.133469,,US
LPG,7780 Highway 39 S,Flynn,TX,77855,31.1470823,-96.1247157,,US
LPG,385 Highway 77,Hallettsville,TX,77964,29.441843,-96.947415,,US
LPG,36975 I-10 W,Boerne,TX,78006,29.792388,-98.752098,,US
LPG,4142 Highway 281 S,Three Rivers,TX,78071,28.4602411,-98.1823748,,US
LPG,105 S Sunset Strip St,Kenedy,TX,78119,28.81349316,-97.85733064,,US
LPG,920 I-35 S,New Braunfels,TX,78130,29.68708,-98.123774,,US
LPG,4124 N Highway 46,Seguin,TX,78155,29.635488,-98.031307,,US
LPG,2502 N Austin St,Seguin,TX,78155,29.595579,-97.965489,,US
LPG,12534 Nacogdoches Rd,San Antonio,TX,78217,29.553334,-98.402288,,US
LPG,2390 Austin Hwy,San Antonio,TX,78218,29.508561,-98.409022,,US
LPG,1826 SW Military Dr,San Antonio,TX,78221,29.35631,-98.522786,,US
LPG,4502 Rigsby Ave,San Antonio,TX,78222,29.398267,-98.403859,,US
LPG,10625 S Presa St,San Antonio,TX,78223,29.31124836,-98.39789864,,US
LPG,7699 Highway 90 W,San Antonio,TX,78227,29.399407,-98.644467,,US
LPG,7507 Eckhert Rd,San Antonio,TX,78240,29.5083,-98.627153,,US
LPG,4344 S Padre Island Dr,Corpus Christi,TX,78411,27.719774,-97.390793,,US
LPG,3611 S Port Ave,Corpus Christi,TX,78415,27.760943,-97.420669,,US
LPG,5402 Ayers St,Corpus Christi,TX,78415,27.729706,-97.42975,,US
LPG,6258 E Highway 107,Edinburg,TX,78542,26.292291,-98.097412,,US
LPG,5201 N LaHoma Rd,Mission,TX,78572,26.276893,-98.3556714,,US
LPG,811 S International Blvd,Weslaco,TX,78596,26.151883,-97.957884,,US
LPG,1742 W Highway 29,Burnet,TX,78611,30.760529,-98.250296,,US
LPG,2601 S Highway 183,Leander,TX,78641,30.545424,-97.841503,,US
LPG,1256 N Magnolia Ave,Luling,TX,78648,29.702294,-97.647682,,US
LPG,16986 San Marcos Hwy,Martindale,TX,78655,29.84603,-97.841653,,US
LPG,4140 S Congress Ave,Austin,TX,78745,30.221839,-97.764993,,US
LPG,4021 IH-35 N,Austin,TX,78722,30.2971071,-97.7177073,,US
LPG,10125 N IH-35,Austin,TX,78753,30.365616,-97.682805,,US
LPG,8710 Burnet Rd,Austin,TX,78757,30.369936,-97.728,,US
LPG,4803 US Highway 183 S,Austin,TX,78744,30.182192,-97.687376,,US
LPG,215 E Main St,Weimar,TX,78962,29.702772,-96.778181,,US
LPG,201 E 1st St,Claude,TX,79019,35.109513,-101.358024,,US
LPG,501 I-40 W,Wildorado,TX,79098,35.209586,-102.201872,,US
LPG,905 Highway 87 N,Dalhart,TX,79022,36.068592,-102.526656,,US
LPG,103 Veteran Park Rd,Hereford,TX,79045,34.8261172,-102.4055721,,US
LPG,3 E Commercial St,Higgins,TX,79046,36.1202933,-100.0243247,,US
LPG,710 N Stateline Rd,Farwell,TX,79325,34.391874,-103.043038,,US
LPG,1919 W Highway 114,Levelland,TX,79336,33.594993,-102.399499,,US
LPG,724 S Broadway,Aspermont,TX,79502,33.137624,-100.227986,,US
LPG,1338 N College Ave,Snyder,TX,79549,32.754851,-100.918651,,US
LPG,104 E Parsonage St,Winters,TX,79567,31.958895,-99.962804,,US
LPG,807 State Highway 137,Stanton,TX,79782,32.1321291,-101.8044359,,US
LPG,12450 Alameda Ave,Clint,TX,79836,31.598127,-106.241724,,US
LPG,315 W Oak St,Sanderson,TX,79848,30.142273,-102.401102,,US
LPG,601 E Broadway,Van Horn,TX,79855,31.040616,-104.824397,,US
LPG,6275 Wadsworth Bypass,Arvada,CO,80003,39.810594,-105.079996,,US
LPG,13721 E Colfax Ave,Aurora,CO,80011,39.740617,-104.827797,,US
LPG,615 S Havana St,Aurora,CO,80012,39.705021,-104.8666,,US
LPG,8001 Federal Blvd,Westminster,CO,80031,39.842034,-105.025261,,US
LPG,830 Wadsworth Blvd,Lakewood,CO,80215,39.72957,-105.080944,,US
LPG,2322 S Federal Blvd,Denver,CO,80219,39.674193,-105.024359,,US
LPG,2645 W Alameda Ave,Denver,CO,80219,39.711528,-105.01878,,US
LPG,8150 E Colfax Ave,Denver,CO,80220,39.739738,-104.893217,,US
LPG,7540 York St,Denver,CO,80229,39.833756,-104.958094,,US
LPG,9190 W Jewell Ave,Lakewood,CO,80232,39.681789,-105.099723,,US
LPG,4640 N Broadway St,Boulder,CO,80304,40.058933,-105.28149,,US
LPG,3105 N Nevada Ave,Colorado Springs,CO,80907,38.876658,-104.81853,,US
LPG,1193 N Academy Blvd,Colorado Springs,CO,80909,38.849398,-104.757291,,US
LPG,4030 Carruth Ct,Pueblo,CO,81008,38.3099323,-104.6132315,,US
LPG,933 W Main St,Riverton,WY,82501,43.024261,-108.404659,12/19/18,US
LPG,3401 W Yellowstone Hwy,Mills,WY,82604,42.847149,-106.373866,,US
LPG,1355 S Gregory Ln,Jackson,WY,83001,43.460318,-110.798108,,US
LPG,709 N 5th Ave,Pocatello,ID,83201,42.87105,-112.449264,,US
LPG,2868 Garrett Way,Pocatello,ID,83201,42.889025,-112.472927,,US
LPG,139 Locust St S,Twin Falls,ID,83301,42.547847,-114.454804,,US
LPG,1757 Kimberly Rd,Twin Falls,ID,83301,42.549067,-114.451025,,US
LPG,1091 Northgate Mile,Idaho Falls,ID,83401,43.505935,-112.024684,,US
LPG,8151 W Chinden Blvd,Boise,ID,83714,43.65012,-116.283375,,US
LPG,1121 N Orchard St,Boise,ID,83706,43.614602,-116.244106,,US
LPG,2320 W Pullman Rd,Moscow,ID,83843,46.732513,-117.031778,,US
LPG,5305 S State St,Salt Lake City,UT,84107,40.655728,-111.887747,,US
LPG,415 W 2100 S,Salt Lake City,UT,84115,40.725184,-111.902655,,US
LPG,4690 S 4000 W,West Valley City,UT,84120,40.667924,-111.986981,,US
LPG,3421 Wall Ave S,Ogden,UT,84401,41.201538,-111.981369,,US
LPG,551 W Columbia Ln,Provo,UT,84604,40.250645,-111.668981,,US
LPG,2626 E Indian School Rd,Phoenix,AZ,85016,33.495974,-112.024775,,US
LPG,9300 N Cave Creek Rd,Phoenix,AZ,85020,33.570846,-112.061415,,US
LPG,9435 N 19th Ave,Phoenix,AZ,85021,33.573287,-112.099355,,US
LPG,2947 E Main St,Mesa,AZ,85213,33.414541,-111.766491,,US
LPG,447 W Broadway,Mesa,AZ,85210,33.407389,-111.841491,,US
LPG,2340 E Apache Blvd,Tempe,AZ,85281,33.415376,-111.887936,,US
LPG,8162 S Priest Dr,Tempe,AZ,85283,33.342541,-111.970109,,US
LPG,5024 W Glendale Ave,Glendale,AZ,85301,33.538737,-112.167546,,US
LPG,6544 W Bell Rd,Glendale,AZ,85308,33.639472,-112.201435,,US
LPG,4655 N Oracle Rd,Tucson,AZ,85705,32.291396,-110.979235,,US
LPG,4040 W Ina Rd,Tucson,AZ,85741,32.338011,-111.052012,,US
LPG,6401 Central Ave NE,Albuquerque,NM,87108,35.077034,-106.57627,,US
LPG,1401 1st St,Magdalena,NM,87825,34.113322,-107.25486,,US
LPG,1608 El Paseo Rd,Las Cruces,NM,88001,32.294066,-106.768462,9/30/14,US
LPG,2301 Las Vegas Blvd N,Las Vegas,NV,89030,36.201945,-115.1231467,,US
LPG,2030 E Fremont St,Las Vegas,NV,89101,36.1605644,-115.1231487,,US
LPG,1900 S Decatur Blvd,Las Vegas,NV,89102,36.150447,-115.20878,,US
LPG,2001 W Bonanza Rd,Las Vegas,NV,89106,36.176416,-115.168523,,US
LPG,5316 Boulder Hwy,Las Vegas,NV,89122,36.106441,-115.058298,,US
LPG,3969 N Rancho Dr,Las Vegas,NV,89130,36.22993,-115.224774,,US
LPG,1700 E Aultman St,Ely,NV,89301,39.25870886,-114.8560757,,US
LPG,3411 S Virginia St,Reno,NV,89502,39.492311,-119.797219,,US
LPG,10400 S Virginia St,Reno,NV,89521,39.436336,-119.767768,,US
LPG,1498 E William St,Carson City,NV,89701,39.173099,-119.751515,,US
LPG,1600 S Western Ave,Los Angeles,CA,90006,34.043302,-118.308645,,US
LPG,657 S Atlantic Blvd,Los Angeles,CA,90022,34.022744,-118.15702,,US
LPG,11020 S Vermont Ave,Los Angeles,CA,90044,33.934865,-118.291148,,US
LPG,4167 S Western Ave,Los Angeles,CA,90062,34.007712,-118.309261,,US
LPG,14206 Van Ness Ave,Gardena,CA,90249,33.902505,-118.317844,,US
LPG,11716 Long Beach Blvd,Lynwood,CA,90262,33.921786,-118.208987,,US
LPG,21707 S Western Ave,Torrance,CA,90501,33.831062,-118.309614,,US
LPG,15707 Leffingwell Rd,Whittier,CA,90604,33.931502,-117.994114,,US
LPG,661 E Lambert Rd,La Habra,CA,90631,33.925537,-117.939756,,US
LPG,2320 N Lincoln Ave,Altadena,CA,91001,34.185844,-118.159075,,US
LPG,1313 S Brand Blvd,Glendale,CA,91204,34.129189,-118.255612,,US
LPG,28650 Canwood St,Agoura,CA,91301,34.145236,-118.750299,,US
LPG,8500 Sepulveda Blvd,North Hills,CA,91343,34.224858,-118.467553,,US
LPG,7721 Hollywood Way,Burbank,CA,91505,34.21136019,-118.3487507,,US
LPG,1889 Puente Ave,Baldwin Park,CA,91706,34.068602,-117.964315,,US
LPG,5140 N Elton St,Baldwin Park,CA,91706,34.106326,-117.950079,,US
LPG,314 E 6th St,Corona,CA,92879,33.874774,-117.56332,,US
LPG,1040 N Azusa Ave,Covina,CA,91722,34.098237,-117.907075,,US
LPG,10704 Garvey Ave,El Monte,CA,91733,34.062553,-118.041255,,US
LPG,17959 Valley Blvd,City of Industry,CA,91744,34.007837,-117.91111,,US
LPG,831 E Holt Blvd,Ontario,CA,91761,34.063561,-117.637591,,US
LPG,2190 N Garey Ave,Pomona,CA,91767,34.087045,-117.750613,,US
LPG,1512 W Holt Ave,Pomona,CA,91768,34.061621,-117.775428,,US
LPG,4251 Rosemead Blvd,Rosemead,CA,91770,34.084034,-118.073674,,US
LPG,99 N 4th Ave,Chula Vista,CA,91910,32.654061,-117.088151,,US
LPG,1805 Massachusetts Ave,Lemon Grove,CA,91945,32.72433,-117.039878,,US
LPG,107 S Vinewood St,Escondido,CA,92029,33.118998,-117.110482,,US
LPG,802 S Coast Hwy,Oceanside,CA,92054,33.188631,-117.372747,,US
LPG,13210 Poway Rd,Poway,CA,92064,32.957143,-117.044492,,US
LPG,4311 El Cajon Blvd,San Diego,CA,92105,32.754719,-117.101581,,US
LPG,9650 Camino Ruiz,San Diego,CA,92126,32.895817,-117.136349,,US
LPG,8088 Miramar Rd,San Diego,CA,92126,32.888865,-117.145192,1/2/18,US
LPG,83491 Highway 111,Indio,CA,92201,33.714893,-116.208175,,US
LPG,296 California Ave,Beaumont,CA,92223,33.924604,-116.980938,,US
LPG,800 E Main St,Barstow,CA,92311,34.898112,-117.016789,,US
LPG,16823 Foothill Blvd,Fontana,CA,92335,34.106384,-117.438017,,US
LPG,380 N State St,Hemet,CA,92543,33.752466,-116.971235,,US
LPG,1200 Alabama St,Redlands,CA,92374,34.068433,-117.208493,,US
LPG,1198 E Baseline St,San Bernardino,CA,92410,34.12165,-117.260946,,US
LPG,3600 Van Buren Blvd,Riverside,CA,92503,33.917138,-117.4445,,US
LPG,1834 Spruce St,Riverside,CA,92507,33.98873,-117.351057,,US
LPG,626 S Anaheim Blvd,Anaheim,CA,92805,33.828214,-117.91116,,US
LPG,3020 Saviers Rd,Oxnard,CA,93033,34.171791,-119.177073,,US
LPG,621 Maulhardt Ave,Oxnard,CA,93030,34.207462,-119.14503,,US
LPG,315 Montgomery Ave,Oxnard,CA,93036,34.252121,-119.163497,,US
LPG,107 N Chester Ave,Bakersfield,CA,93308,35.405598,-119.021589,,US
LPG,3400 Buck Owens Blvd,Bakersfield,CA,93308,35.390632,-119.04227,,US
LPG,104 Sunland Reservation Rd,Bishop,CA,93514,37.361295,-118.40469,,US
LPG,42165 N Sierra Hwy,Lancaster,CA,93535,34.649171,-118.129499,,US
LPG,31822 Auberry Rd,Auberry,CA,93602,37.060732,-119.495479,,US
LPG,40087 Highway 49,Oakhurst,CA,93644,37.333913,-119.659649,,US
LPG,41801 Fruitvale Ave,Orosi,CA,93647,36.548498,-119.263226,,US
LPG,4036 E Ventura Ave,Fresno,CA,93702,36.735494,-119.757289,,US
LPG,6116 N Blackstone Ave,Fresno,CA,93710,36.825047,-119.789643,,US
LPG,50557 Wildhorse Rd,King City,CA,93930,36.189408,-121.069404,,US
LPG,62 W El Camino Real,Mountain View,CA,94040,37.381255,-122.073276,,US
LPG,221 Devlin Rd,Napa,CA,94558,38.235406,-122.264142,,US
LPG,6265 Scarlett Ct,Dublin,CA,94568,37.703602,-121.905313,,US
LPG,1017 23rd St,Richmond,CA,94804,37.94772,-122.347453,,US
LPG,1266 White Oaks Rd,Campbell,CA,95008,37.268914,-121.946306,,US
LPG,705 Curtner Ave,San Jose,CA,95125,37.293218,-121.876098,,US
LPG,2701 N Wilson Way,Stockton,CA,95205,37.983403,-121.271676,,US
LPG,2525 E Mariposa Rd,Stockton,CA,95205,37.935639,-121.237863,,US
LPG,7701 Tam O'Shanter Dr,Stockton,CA,95210,38.019271,-121.300836,,US
LPG,450 N Cherokee Ln,Lodi,CA,95240,38.140011,-121.259876,,US
LPG,18877 Microtronics Way,Sonora,CA,95370,37.960389,-120.320855,,US
LPG,1929 E Moffat Blvd,Manteca,CA,95336,37.777462,-121.18512,,US
LPG,1247 Martin Luther King Jr Way,Merced,CA,95341,37.295859,-120.483328,,US
LPG,813 D St,Modesto,CA,95354,37.633522,-120.994992,,US
LPG,12 W College Ave,Santa Rosa,CA,95401,38.445451,-122.728521,,US
LPG,825 Highway 101 N,Crescent City,CA,95531,41.764544,-124.195285,,US
LPG,17834 Railroad St,Madison,CA,95653,38.680656,-121.968799,,US
LPG,22479 Highway 88,Pioneer,CA,95666,38.4155472,-120.6109796,,US
LPG,3275 Bradley Dr,Placerville,CA,95667,38.70224,-120.812719,,US
LPG,11351 Pyrites Way,Rancho Cordova,CA,95670,38.615778,-121.257558,,US
LPG,1240 E Monte Vista Ave,Vacaville,CA,95688,38.360124,-121.97293,,US
LPG,1750 W Capitol Ave,West Sacramento,CA,95691,38.580781,-121.532149,,US
LPG,1650 El Camino Ave,Sacramento,CA,95815,38.610428,-121.429039,,US
LPG,2738 65th St,Sacramento,CA,95817,38.549064,-121.428202,,US
LPG,2830 Broadway,Sacramento,CA,95817,38.556839,-121.475556,,US
LPG,6425 Stockton Blvd,Sacramento,CA,95823,38.50972,-121.434564,,US
LPG,10161 Mills Station Rd,Sacramento,CA,95827,38.583689,-121.312517,,US
LPG,2770 Feather River Blvd,Oroville,CA,95965,39.4884896,-121.5739341,,US
LPG,1446 Colusa Hwy,Yuba City,CA,95993,39.141135,-121.63874,,US
LPG,205 E Cypress Ave,Redding,CA,96002,40.570499,-122.367668,,US
LPG,37289 Main St,Burney,CA,96013,40.883965,-121.658027,,US
LPG,801 N Main St,Alturas,CA,96101,41.491242,-120.542993,,US
LPG,2722 Kilihau St,Honolulu,HI,96819,21.335613,-157.897094,,US
LPG,14225 SW Tualatin Valley Hwy,Beaverton,OR,97005,45.489968,-122.823718,,US
LPG,1190 SW Walnut St,Hillsboro,OR,97123,45.516955,-123.002055,,US
LPG,2380 NE Cornell Rd,Hillsboro,OR,97124,45.530018,-122.959141,,US
LPG,4831 SE Powell Blvd,Portland,OR,97206,45.497907,-122.612963,,US
LPG,7345 NE Sandy Blvd,Portland,OR,97213,45.549315,-122.587352,,US
LPG,11552 SW Pacific Hwy,Tigard,OR,97223,45.439641,-122.749308,,US
LPG,14310 SE McLoughlin Blvd,Milwaukie,OR,97267,45.419008,-122.63195,,US
LPG,3612 Silverton Rd NE,Salem,OR,97305,44.968091,-122.988148,,US
LPG,1050 NW 5th St,Corvallis,OR,97330,44.573782,-123.259127,,US
LPG,1182 NE Stephens St,Roseburg,OR,97470,43.2241,-123.348187,,US
LPG,2175 Joseph St,Medford,OR,97501,42.349653,-122.903259,,US
LPG,2410 N Pacific Hwy,Medford,OR,97501,42.348517,-122.88766,,US
LPG,2528 Washburn Way,Klamath Falls,OR,97603,42.204739,-121.757847,,US
LPG,900 NE 1st St,Bend,OR,97701,44.059112,-121.305258,,US
LPG,917 Auburn Way S,Auburn,WA,98002,47.298981,-122.220646,,US
LPG,6720 NE Bothell Way,Kenmore,WA,98028,47.7588,-122.250962,,US
LPG,12000 NE 85th St,Kirkland,WA,98033,47.679519,-122.179734,,US
LPG,19130 Highway 99,Lynnwood,WA,98036,47.824898,-122.312388,,US
LPG,1119 NW Leary Way,Ballard,WA,98107,47.6634224,-122.3738053,,US
LPG,6403 Martin Luther King Jr Way S,Seattle,WA,98118,47.545239,-122.285289,,US
LPG,6343 35th Ave SW,Seattle,WA,98126,47.545043,-122.377143,,US
LPG,16503 Aurora Ave N,Shoreline,WA,98133,47.74906,-122.34622,,US
LPG,20024 International Blvd,SeaTac,WA,98198,47.421994,-122.29588,,US
LPG,6443 Evergreen Way,Everett,WA,98203,47.938948,-122.217746,,US
LPG,4549 Guide Meridian Rd,Bellingham,WA,98226,48.80585868,-122.4863624,,US
LPG,1212 Earnest S Brazill St,Tacoma,WA,98405,47.250567,-122.454242,,US
LPG,15315 Pacific Ave S,Tacoma,WA,98444,47.117172,-122.434182,,US
LPG,2516 E 4th Ave,Olympia,WA,98506,47.046482,-122.865678,,US
LPG,364 Oregon Way,Longview,WA,98632,46.12026,-122.945184,,US
LPG,2460 NE Andresen Rd,Vancouver,WA,98661,45.640653,-122.600802,,US
LPG,3315 E 4th Plain Blvd,Vancouver,WA,98661,45.6372327,-122.6373006,,US
LPG,8250 Highway 99,Vancouver,WA,98665,45.681549,-122.6621,,US
LPG,1122 S 1st St,Yakima,WA,98901,46.588969,-120.500158,,US
LPG,21 W 3rd Ave,Spokane,WA,99204,47.6532769,-117.4121938,,US
LPG,14505 E Sprague Ave,Spokane,WA,99216,47.657317,-117.209904,,US
LPG,8805 N Division St,Spokane,WA,99218,47.737402,-117.41306,,US
LPG,3212 W Court St,Pasco,WA,99301,46.241332,-119.133935,,US
LPG,2326 Meredith Ln,Santa Maria,CA,93455,34.918373,-120.450143,,US
E85,514 W Yellowstone Trail,Buffalo Lake,MN,55314,44.737557,-94.622302,7/15/05,US
E85,1025 E Frontage Rd,Litchfield,MN,55355,45.121591,-94.503642,10/15/00,US
LPG,2700 W Highway 70,Thatcher,AZ,85552,32.84628974,-109.7441827,,US
E85,4070 N Clark St,Chicago,IL,60613,41.956159,-87.663596,8/15/00,US
E85,2632 W 111th St,Chicago,IL,60655,41.691997,-87.687613,1/15/01,US
E85,6025 Atlanta Hwy,Alpharetta,GA,30004,34.136404,-84.247971,3/15/13,US
LPG,3168 S Old Highway 41,Vincennes,IN,47591,38.630485,-87.533156,,US
LPG,101 Spencer Hwy,South Houston,TX,77587,29.664705,-95.231428,,US
BD,40 Hobron Ave,Kahului,HI,96732,20.89254,-156.461358,6/15/98,US
E85,130 State Highway 68 E,Wabasso,MN,56293,44.39915,-95.258619,2/15/01,US
E85,302 E Clark St,Albert Lea,MN,56007,43.649515,-93.365823,2/15/05,US
LPG,Route 715 & Possinger Rd,Reeders,PA,18352,41.028185,-75.327932,,US
CNG,1140 University Blvd NE,Albuquerque,NM,87102,35.093865,-106.626046,1/15/99,US
E85,295 S Broadway,Denver,CO,80209,39.711518,-104.987981,10/15/02,US
CNG,164 Pond St,Stoneham,MA,2180,42.465083,-71.091192,5/15/01,US
CNG,44 Harding St,Middleborough,MA,2346,41.902347,-70.969777,5/15/03,US
CNG,11043 French Rd,Detroit,MI,48234,42.408541,-83.010061,9/15/98,US
CNG,205 Sigma Pl,Guthrie,OK,73044,35.858586,-97.425416,5/15/01,US
CNG,680 E State Highway 152,Mustang,OK,73064,35.391472,-97.711691,5/15/01,US
CNG,500 W Commerce,Clinton,OK,73601,35.479669,-98.983451,5/15/01,US
CNG,3601 NE Indiana St,Bartlesville,OK,74006,36.764066,-95.936657,5/15/01,US
CNG,1449 SW Country Club Rd,Claremore,OK,74017,36.292974,-95.628285,5/15/01,US
CNG,11 S Treaty Rd,Miami,OK,74354,36.874317,-94.841332,5/15/01,US
CNG,1825 W McKinley Ave,Fresno,CA,93728,36.764688,-119.832131,5/15/01,US
CNG,1993 Rancho Conejo Blvd,Thousand Oaks,CA,91320,34.206237,-118.933606,7/15/96,US
E85,537 E Maple,Sacred Heart,MN,56285,44.787403,-95.341421,6/15/01,US
E85,1208 W Lincoln Ave,Olivia,MN,56277,44.776707,-94.994495,6/15/01,US
E85,600 E Lincoln,Fairfax,MN,55332,44.528638,-94.709647,6/15/01,US
E85,1297 Granite St,Granite Falls,MN,56241,44.806338,-95.54527,6/15/01,US
LPG,720 Glendale Ave,Sparks,NV,89431,39.527776,-119.751477,,US
LPG,7694 Highway 69/75,Calera,OK,74730,33.91045709,-96.45987519,,US
LPG,4308 Highway 81 S,Chickasha,OK,73018,34.999205,-97.935952,,US
LPG,3502 W 3rd St,Elk City,OK,73644,35.41121847,-99.45098159,,US
LPG,19630 NE 23rd,Harrah,OK,73045,35.49284852,-97.18260131,,US
LPG,319 N Oliphant St,Holdenville,OK,74848,35.087227,-96.388839,,US
LPG,201 W Broadway St,Lexington,OK,73051,35.015328,-97.337504,,US
LPG,108 W Main St,Locust Grove,OK,74352,36.1998809,-95.1718867,,US
LPG,523 12th Ave NE,Norman,OK,73071,35.224795,-97.423096,7/25/17,US
LPG,4900 S Anderson Rd,Oklahoma City,OK,73150,35.417192,-97.316992,,US
LPG,8308 SW 3rd St,Oklahoma City,OK,73128,35.462048,-97.661313,,US
LPG,4655 Highway 20 W,Pryor,OK,74361,36.307255,-95.394441,,US
LPG,3500 Boren Blvd,Seminole,OK,74868,35.257806,-96.709356,,US
LPG,5625 N Harrison Ave,Shawnee,OK,74804,35.38131235,-96.91188334,,US
LPG,3602 N Mingo Valley Expy,Tulsa,OK,74116,36.207104,-95.855005,,US
LPG,800 SW 4th St,Weatherford,OK,73096,35.52210706,-98.71718257,,US
LPG,1940 N Redwood Rd,Salt Lake City,UT,84116,40.810611,-111.937435,,US
LPG,2600 S Main St,Bountiful,UT,84010,40.861884,-111.896345,,US
LPG,742 W 2600 S,Woods Cross,UT,84087,40.861997,-111.899983,,US
E85,330 County Rd 21 S,Glenwood,MN,56334,45.646833,-95.372122,9/15/01,US
BD,912 NW 50th St,Seattle,WA,98107,47.66525,-122.369311,5/15/01,US
LPG,1101 S 1600 W,Lewiston,UT,84320,41.956567,-111.892869,,US
LPG,201 W 2700 S,Salt Lake City,UT,84115,40.71225,-111.897151,,US
LPG,2927 S American Way,Ogden,UT,84401,41.21147,-112.019184,,US
LPG,1212 Beck St,Salt Lake City,UT,84116,40.796302,-111.905128,,US
LPG,460 Mesa St,West Wendover,NV,89883,40.7326313,-114.0756632,,US
LPG,880 E Agate Ct,Granby,CO,80446,40.08448823,-105.9283874,,US
LPG,603 W 2nd St,Atlantic,IA,50022,41.40885447,-95.02223388,,US
LPG,1221 Grant St,De Pere,WI,54115,44.444542,-88.092611,,US
LPG,415 S Division St,Braidwood,IL,60408,41.25572,-88.226144,,US
LPG,2526 N Water St,Decatur,IL,62526,39.869986,-88.954648,,US
LPG,1625 S Schuyler Ave,Kankakee,IL,60901,41.101504,-87.869992,,US
LPG,2180 S Highway 35,Knox,IN,46534,41.27149,-86.619785,,US
LPG,1622 Connolley Rd,Lincoln,IL,62656,40.1536,-89.404839,,US
LPG,2904 E 24th Rd,Marseilles,IL,61341,41.354657,-88.703976,,US
LPG,6792 E 1700 N Rd,Oakwood,IL,61858,40.114198,-87.8125,,US
LPG,1005 Interlake Dr,Pontiac,IL,61764,40.886754,-88.644287,,US
LPG,1705 N McKinley Ave,Rensselaer,IN,47978,40.952621,-87.150883,,US
LPG,5768 E State Rd 10,De Motte,IN,46310,41.145115,-87.280238,,US
LPG,2201 E University Ave,Urbana,IL,61802,40.114285,-88.181229,,US
LPG,1704 Veterans Ave,Vandalia,IL,62471,38.976227,-89.113837,,US
LPG,1620 E Walnut St,Watseka,IL,60970,40.775553,-87.700541,,US
LPG,1023 Lake Ave,Woodstock,IL,60098,42.302784,-88.432025,,US
E85,3240 Fort Meade Rd,Laurel,MD,20724,39.091377,-76.774898,6/15/04,US
LPG,381 S White Mountain Rd,Show Low,AZ,85901,34.246103,-110.02458,,US
ELEC,1610 Geary Blvd,San Francisco,CA,94115,37.784912,-122.430237,1/31/02,US
ELEC,433 Kearny St,San Francisco,CA,94104,37.792058,-122.404312,1/31/02,US
ELEC,2 New Montgomery St,San Francisco,CA,94105,37.78881,-122.401,1/31/02,US
ELEC,999 California St,San Francisco,CA,94108,37.791791,-122.411265,1/31/02,US
ELEC,123 O'Farrell St,San Francisco,CA,94102,37.786061,-122.407088,1/31/02,US
ELEC,8555 Beverly Blvd,Los Angeles,CA,90048,34.07631,-118.377,1/31/02,US
ELEC,135 N Grand Ave,Los Angeles,CA,90012,34.055974,-118.248893,1/31/02,US
ELEC,16821 Burbank Blvd,Encino,CA,91436,34.169242,-118.497212,6/15/98,US
ELEC,18111 Nordhoff St,Northridge,CA,91330,34.248959,-118.523887,1/15/02,US
ELEC,18111 Nordhoff St,Northridge,CA,91330,34.241687,-118.528543,1/15/02,US
ELEC,18111 Nordhoff St,Northridge,CA,91330,34.236853,-118.532588,1/15/02,US
ELEC,8775 Wilbur Ave,Northridge,CA,91324,34.229277,-118.544827,4/1/19,US
ELEC,425 S Palos Verdes St,San Pedro,CA,90731,33.740758,-118.28192,3/26/13,US
ELEC,8475 S Vermont Ave,Los Angeles,CA,90044,33.961256,-118.29187,1/31/02,US
ELEC,Village Way Dr,San Fernando,CA,91342,34.2924134,-118.4497914,4/1/19,US
ELEC,1200 Getty Center Dr,Los Angeles,CA,90049,34.077588,-118.474585,7/1/13,US
E85,301 E 1st St,Minneota,MN,56264,44.558104,-95.985501,6/15/16,US
E85,401 Country Club Dr,Marshall,MN,56258,44.44248,-95.795705,3/15/02,US
E85,147 Barstad Rd,Cottonwood,MN,56229,44.609779,-95.671563,3/15/02,US
ELEC,301 N Baldwin Ave,Arcadia,CA,91007,34.142727,-118.051275,6/1/14,US
LPG,710 E Main St,Mandan,ND,58554,46.82805,-100.880065,,US
LPG,2006 E Broadway,Bismarck,ND,58501,46.806717,-100.761275,,US
LPG,40 Mississippi 481,Morton,MS,39117,32.351878,-89.655898,,US
ELEC,114 S Vista Bonita Ave,Glendora,CA,91741,34.13556,-117.864,4/30/02,US
ELEC,6161 Centinela Ave,Culver City,CA,90230,33.9826,-118.3966,6/18/12,US
ELEC,8800 Venice Blvd,Los Angeles,CA,90034,34.029971,-118.385231,4/25/17,US
ELEC,2800 N Main St,Santa Ana,CA,92705,33.77699,-117.871,5/30/02,US
ELEC,1115 Anacapa St,Santa Barbara,CA,93101,34.423495,-119.70228,,US
ELEC,1 University Dr,Camarillo,CA,93012,34.165493,-119.04505,5/30/02,US
ELEC,101 S Brea Blvd,Brea,CA,92821,33.919899,-117.898618,5/30/02,US
ELEC,2745 Teller Rd,Newbury Park,CA,91320,34.18997,-118.934393,5/15/02,US
ELEC,Casitas Pass Rd & Baldwin Rd,Oak View,CA,93022,34.418322,-119.3368,5/30/02,US
ELEC,205 S San Dimas Ave,San Dimas,CA,91773,34.105203,-117.807471,5/30/02,US
ELEC,1700 Ocean Ave,Santa Monica,CA,90401,34.00907,-118.4928,9/14/12,US
ELEC,100 N El Molino Ave,Pasadena,CA,91101,34.147697,-118.136897,5/30/02,US
ELEC,800 S Victoria Ave,Ventura,CA,93009,34.267352,-119.2124,10/19/12,US
ELEC,669 County Square Dr,Ventura,CA,93003,34.268756,-119.2154,10/18/12,US
ELEC,3295 E Main St,Ventura,CA,93003,34.268,-119.2492,5/30/02,US
CNG,2352 Bisso Ln,Concord,CA,94520,37.982071,-122.046184,7/15/02,US
ELEC,1441 Research Park Dr,Davis,CA,95616,38.539118,-121.732015,6/1/04,US
ELEC,3433 Roberto Ct,San Luis Obispo,CA,93401,35.25939,-120.64492,7/15/02,US
E85,17000 Crabbs Branch Way,Gaithersburg,MD,20855,39.128863,-77.167581,9/15/02,US
LPG,3111 NW Grand Ave,Phoenix,AZ,85017,33.487393,-112.126267,,US
E85,206 S 5th St,Breckenridge,MN,56520,46.261969,-96.58752,6/15/06,US
E85,1200 S 1st St,Willmar,MN,56201,45.11129,-95.043137,11/15/02,US
LPG,8750 S Harrison St,Sandy,UT,84070,40.592105,-111.901209,,US
LPG,555 W 3900 S,Murray,UT,84123,40.68657,-111.909331,,US
ELEC,601 Front St,Santa Cruz,CA,95061,36.973393,-122.024849,6/30/98,US
LPG,101 Saunders Rd,Opp,AL,36467,31.265047,-86.224042,,US
LPG,10585 Highway 78,Jasper,AL,35501,33.829321,-87.205809,,US
LPG,9261 Strong Hwy,Strong,AR,71765,33.111701,-92.358558,,US
LPG,664 Highway 113 S,Morrilton,AR,72110,35.121648,-92.740718,,US
LPG,1805 N Falls Blvd,Wynne,AR,72396,35.243312,-90.783303,,US
LPG,2701 E Rock Falls Rd,Rock Falls,IL,61071,41.758893,-89.652244,,US
LPG,163 Railroad Ave SW,New Albin,IA,52160,43.496969,-91.290024,,US
LPG,3916 Adams St SW,Peoria,IL,61605,40.663073,-89.631968,,US
LPG,1204 E Main St,Santa Maria,CA,93454,34.952606,-120.415997,,US
LPG,1960 Ramada Dr,Paso Robles,CA,93446,35.588058,-120.693573,,US
LPG,204 Madonna Rd,San Luis Obispo,CA,93405,35.264698,-120.676147,,US
LPG,3501 S Cicero Ave,Cicero,IL,60804,41.830266,-87.73919,,US
LPG,107 Iris Ave,Jefferson,LA,70121,29.958471,-90.139678,,US
LPG,1162 Park St,Palmer,MA,1069,42.152638,-72.318498,,US
E85,402 Fire Monument Rd,Hinckley,MN,55037,46.010739,-92.930058,5/15/03,US
E85,21 NE 4th St,Oklahoma City,OK,73104,35.471983,-97.511336,4/15/08,US
CNG,2474 N Employee Rd,Grapevine,TX,76051,32.876733,-97.039256,5/15/03,US
E85,922 US 75,Graceville,MN,56240,45.571633,-96.431225,5/15/03,US
E85,1301 Industrial Blvd NE,Minneapolis,MN,55413,45.002254,-93.209326,6/15/05,US
CNG,15330 Woodruff Ave,Bellflower,CA,90706,33.893163,-118.117297,10/21/02,US
LNG,2800 Workman Mill Rd,Whittier,CA,90601,34.025657,-118.031019,6/15/03,US
E85,200 Minnesota 7 W,Clara City,MN,56222,44.948469,-95.372767,5/15/03,US
E85,251 1st Ave,Windom,MN,56101,43.85564785,-95.11466968,5/15/03,US
LPG,102 Main St,Garber,OK,73738,36.439746,-97.582962,,US
E85,1041 N Colorado Ave,Brush,CO,80723,40.2665,-103.621179,4/15/05,US
LPG,319 Rural Route 2325,Wimberley,TX,78676,30.0010019,-98.1031562,,US
LPG,39 US Highway 380,Bridgeport,TX,76426,33.220598,-97.778233,,US
LPG,8205 Avenue F,Lubbock,TX,79404,33.51891,-101.841395,,US
LPG,1219 Magnolia Ave,Port Neches,TX,77651,29.981873,-93.966133,,US
LPG,700 N George Kacir Dr,West,TX,76691,31.81029197,-97.09787736,,US
LPG,2845 Plains Highway 214,Denver City,TX,79323,33.01702408,-102.8189131,,US
LPG,408 SW 13th St,Andrews,TX,79714,32.312108,-102.561049,,US
LPG,11501 County Rd 125,Odessa,TX,79765,31.911507,-102.235437,,US
LPG,1802 Hutchings Ave,Ballinger,TX,76821,31.728208,-99.957861,,US
LPG,1445 Texas 86 E,Dimmitt,TX,79027,34.54564,-102.333775,,US
LPG,429 N Highway 87,Tulia,TX,79088,34.541527,-101.776418,,US
LPG,2212 Hobbs Hwy,Seminole,TX,79360,32.725172,-102.67004,,US
LPG,509 IH-20 Southside Access Rd,Clyde,TX,79510,32.413531,-99.501083,,US
LPG,518 Texas 143 Loop SE,Perryton,TX,79070,36.376992,-100.807951,,US
LPG,901 N 2nd St,Floydada,TX,79235,33.994623,-101.34157,,US
LPG,301 E 24th St,Plainview,TX,79072,34.206975,-101.699608,,US
LPG,1201 E Main St,Fredericksburg,TX,78624,30.262802,-98.856829,,US
LPG,3830 Highway 281 N,Mineral Wells,TX,76067,32.853728,-98.093736,,US
LPG,400 W Main St,Madisonville,TX,77864,30.948334,-95.916431,,US
LPG,514 N Main St,Morton,TX,79346,33.729556,-102.75915,,US
LPG,19126 FM 969,Webberville,TX,78653,30.22844,-97.514844,,US
LPG,2727 S FM 2184,Rogers,TX,76569,30.929257,-97.256039,,US
LPG,910 Industrial Dr,Slaton,TX,79364,33.449108,-101.651094,,US
LPG,4004 N County Rd W,Odessa,TX,79764,31.877323,-102.400088,,US
LPG,3302 W 2nd St,Taylor,TX,76574,30.564966,-97.448338,,US
LPG,100 S Main St,Schulenburg,TX,78956,29.678686,-96.898345,,US
LPG,2110 N Main St,Junction,TX,76849,30.5010178,-99.7782337,,US
LPG,2211 Austin Hwy,San Antonio,TX,78218,29.505731,-98.415033,,US
LPG,840 Highway 155 N,Gilmer,TX,75644,32.740686,-94.935262,,US
LPG,1452 US 180 E,Breckenridge,TX,76424,32.75548,-98.884587,,US
LPG,2500 E University Dr,Denton,TX,76209,33.234198,-97.097971,,US
LPG,1921 N Wood St,Gilmer,TX,75644,32.760563,-94.941463,,US
LPG,601 N Highway 27,Lubbock,TX,79403,33.60725,-101.846233,,US
LPG,327 S 38th St,Killeen,TX,76543,31.10631,-97.704987,,US
LPG,1607 3rd St,Floresville,TX,78114,29.130883,-98.156535,,US
LPG,2442 SE Loop,Carthage,TX,75633,32.145234,-94.327662,,US
LPG,821 W Brown St,Pampa,TX,79065,35.526648,-100.968302,,US
LPG,253 County Rd 13,Silverton,TX,79257,34.474596,-101.2948677,,US
LPG,15167 Main St,Lytle,TX,78052,29.232511,-98.797953,,US
LPG,140 W Main St,Azle,TX,76020,32.891567,-97.543358,,US
LPG,5812 Gulfway Dr,Port Arthur,TX,77642,29.928213,-93.903221,,US
LPG,213 E Chestnut St,Throckmorton,TX,76483,33.178602,-99.175665,,US
LPG,Rio Grande Village,Big Bend National Park,TX,79834,29.1825243,-102.9613325,,US
LPG,1311 1st St,Levelland,TX,79336,33.592816,-102.383772,,US
LPG,11428 Highway 287 W,Vernon,TX,76384,34.19149237,-99.34390109,,US
LPG,319 Highway 50,Greenville,TX,75401,33.133817,-95.988157,,US
LPG,109 S Texas St,Emory,TX,75440,32.872558,-95.766232,,US
LPG,12728 State Highway 19,Canton,TX,75103,32.6059127,-95.8503931,,US
LPG,3154 Ranger Hwy,Weatherford,TX,76088,32.729228,-97.876124,,US
LPG,1201 Precinct Line Rd,Hurst,TX,76053,32.832324,-97.186828,,US
LPG,113 W Rusk St,Mt Enterprise,TX,75681,31.9176257,-94.6822891,,US
LPG,726 W Washington Ave,Navasota,TX,77868,30.3844,-96.096047,,US
LPG,115 N Wilson Ave,Dumas,TX,79029,35.866282,-101.981886,,US
LPG,900 S Lakeside Dr,Amarillo,TX,79118,35.196074,-101.744345,,US
LPG,14251 Highway 29,Liberty Hill,TX,78642,30.671658,-97.919389,,US
LPG,1677 Highway 69 S,Mineola,TX,75773,32.6429009,-95.48871,,US
LPG,918 S SW Loop 323,Tyler,TX,75701,32.339242,-95.33977,,US
LPG,1301 FM 1845,Longview,TX,75603,32.482811,-94.768268,,US
LPG,410 N Highway 79,Henderson,TX,75654,32.154444,-94.783732,,US
LPG,801 E Highway 20,Colorado City,TX,79512,32.41021361,-100.8498961,,US
LPG,3410 SE End Blvd,Marshall,TX,75672,32.514446,-94.353822,,US
LPG,903 E 3rd St,Burkburnett,TX,76354,34.099706,-98.559952,,US
LPG,1324 State Highway 173 N,Devine,TX,78016,29.15209889,-98.92136945,,US
LPG,8662 Highway 77,Lexington,TX,78947,30.41079,-97.001928,,US
LPG,1120 Wayland Jennings Blvd,Littlefield,TX,79339,33.916862,-102.321333,,US
LPG,4532 Highway 190 W,Livingston,TX,77351,30.7361076,-94.99345913,,US
LPG,14729 W Expy 83,Harlingen,TX,78552,26.18156774,-97.78774019,,US
LPG,1763 FM 2673,Canyon Lake,TX,78133,29.847461,-98.17701,,US
LPG,501 S Lynn Ave,Lamesa,TX,79331,32.729351,-101.947415,,US
LPG,491 S Main St,Giddings,TX,78942,30.179593,-96.938418,,US
LPG,5549 Miller Rd,Krum,TX,76249,33.278893,-97.251999,,US
LPG,815 Broadway St,Hart,TX,79043,34.379494,-102.115787,,US
LPG,410 Highway 281 S,Johnson City,TX,78636,30.2693899,-98.3986639,,US
LPG,6803 Highway Blvd,Katy,TX,77494,29.7850922,-95.8374061,,US
LPG,824 Main St,Friona,TX,79035,34.639167,-102.718154,,US
LPG,3349 Junction Hwy,Ingram,TX,78025,30.076251,-99.239906,,US
LPG,1008 E Main St,Clarksville,TX,75426,33.611657,-95.042298,,US
LPG,14649 Highway US 377 S,Dublin,TX,76446,32.134833,-98.306611,,US
LPG,700 W Red Oak Rd,Red Oak,TX,75154,32.52008849,-96.823589,,US
LPG,17017 Highway 6,Santa Fe,TX,77510,29.396538,-95.159294,,US
LPG,2406 Junction Hwy,Kerrville,TX,78028,30.073331,-99.199717,,US
LPG,6405 I-20,Ranger,TX,76470,32.4459266,-98.6815876,,US
LPG,6504 W Highway 29,Georgetown,TX,78628,30.63746047,-97.79905657,,US
LPG,414 S Highway 207,Spearman,TX,79081,36.193297,-101.203127,,US
LPG,6696 Highway 50,Commerce,TX,75428,33.275557,-95.896376,,US
LPG,2393 FM 118,Greenville,TX,75401,33.1464762,-96.07244637,,US
LPG,3720 S IH-35,New Braunfels,TX,78132,29.669972,-98.162089,,US
LPG,501 Rayford Rd,Spring,TX,77388,30.12765,-95.4334207,,US
LPG,712 N Robinson Dr,Waco,TX,76706,31.4926463,-97.12402269,,US
LPG,5514 E Houston St,San Antonio,TX,78220,29.421124,-98.383448,,US
LPG,900 E Industrial Ave,Booker,TX,79005,36.464486,-100.530404,,US
LPG,7551 Highway 19,Athens,TX,75751,32.1288856,-95.8202462,,US
LPG,1961 Lone Star Rd,Mansfield,TX,76063,32.534159,-97.110595,,US
LPG,3101 Highway 82 E,Sherman,TX,75090,33.664592,-96.579747,,US
LPG,713 I-35,Sanger,TX,76266,33.348286,-97.181279,,US
LPG,102 E Hill St,Spur,TX,79370,33.480603,-100.853046,,US
LPG,1310 S US Highway 281,Hamilton,TX,76531,31.67839,-98.13459,,US
LPG,9884 FM 1617,Trinity,TX,75862,30.913941,-95.375827,,US
LPG,305 W Main St,Rocksprings,TX,78880,30.0156904,-100.2093358,,US
LPG,320 1st St,Canadian,TX,79014,35.913955,-100.387677,,US
LPG,1607 E 3rd St,Big Spring,TX,79720,32.259916,-101.457603,,US
LPG,Highway 377,Comanche,TX,76442,31.8973693,-98.6036581,,US
LPG,205 Gardner Ave,Bovina,TX,79009,34.52132382,-102.8905165,,US
LPG,400 Highway 101 S,Chico,TX,76431,33.29121,-97.794538,,US
LPG,2411 Highway 377 E,Granbury,TX,76049,32.44722,-97.74321,,US
LPG,1106 W Kilpatrick St,Cleburne,TX,76033,32.364693,-97.410809,,US
LPG,1146 Highway 90A Alt,Sheridan,TX,77475,29.486216,-96.693633,,US
LPG,633 US 83,Leakey,TX,78873,29.719508,-99.763326,,US
LPG,1715 E 10th St,Amarillo,TX,79102,35.2010753,-101.8169385,,US
LPG,6801 Mitchell Pkwy,Arlington,TX,76002,32.630437,-97.082296,,US
LPG,1201 Loop 301 E,Sulphur Springs,TX,75482,33.151786,-95.571714,,US
LPG,705 E Olive St,Holliday,TX,76366,33.819385,-98.686215,,US
LPG,2694 Calder Dr,League City,TX,77573,29.479017,-95.103907,,US
LPG,401 N Sharry Rd,Mission,TX,78573,26.2047866,-98.2873086,,US
LPG,101 Locust St,Abilene,TX,79602,32.447991,-99.72987,,US
LPG,7154 Canyon Dr,Amarillo,TX,79109,35.133953,-101.898735,,US
LPG,902 W Main St,Brownfield,TX,79316,33.179163,-102.285248,,US
LPG,20126 Loop 494,New Caney,TX,77357,30.154117,-95.21223,,US
BD,4067 El Cajon Blvd,San Diego,CA,92105,32.754335,-117.107501,8/15/03,US
E85,4067 El Cajon Blvd,San Diego,CA,92105,32.754335,-117.107501,8/15/03,US
E85,5340 N Maize Rd,Maize,KS,67101,37.780218,-97.462527,7/15/03,US
BD,3950 W 30th St S,Wichita,KS,67217,37.639304,-97.388641,2/3/15,US
CNG,7002 S Union Ave,Tulsa,OK,74132,36.060878,-96.011698,8/15/03,US
